[{"results":[{"id":1,"stateId":"1","stateName":"Aguascalientes","name":"Aguascalientes","lat":21.811296235,"lon":-102.294785813},{"id":2,"stateId":"1","stateName":"Aguascalientes","name":"Asientos","lat":22.125972234,"lon":-102.044720566},{"id":3,"stateId":"1","stateName":"Aguascalientes","name":"Calvillo","lat":21.900480544,"lon":-102.704210199},{"id":4,"stateId":"1","stateName":"Aguascalientes","name":"Cosío","lat":22.360144956,"lon":-102.296381933},{"id":10,"stateId":"1","stateName":"Aguascalientes","name":"El Llano","lat":21.920638412,"lon":-102.034169539},{"id":5,"stateId":"1","stateName":"Aguascalientes","name":"Jesús María","lat":21.93081981,"lon":-102.446204318},{"id":6,"stateId":"1","stateName":"Aguascalientes","name":"Pabellón de Arteaga","lat":22.10373384,"lon":-102.299851109},{"id":7,"stateId":"1","stateName":"Aguascalientes","name":"Rincón de Romos","lat":22.266123962,"lon":-102.340613032},{"id":11,"stateId":"1","stateName":"Aguascalientes","name":"San Francisco de los Romo","lat":22.030935589,"lon":-102.230507782},{"id":8,"stateId":"1","stateName":"Aguascalientes","name":"San José de Gracia","lat":22.146672874,"lon":-102.5255243},{"id":9,"stateId":"1","stateName":"Aguascalientes","name":"Tepezalá","lat":22.237402093,"lon":-102.191571402},{"id":282,"stateId":"10","stateName":"Durango","name":"Canatlán","lat":24.509963703,"lon":-104.931469207},{"id":283,"stateId":"10","stateName":"Durango","name":"Canelas","lat":25.071863484,"lon":-106.45123515},{"id":284,"stateId":"10","stateName":"Durango","name":"Coneto de Comonfort","lat":25.031559497,"lon":-104.777923651},{"id":285,"stateId":"10","stateName":"Durango","name":"Cuencamé","lat":24.685860937,"lon":-103.707197301},{"id":286,"stateId":"10","stateName":"Durango","name":"Durango","lat":23.971273536,"lon":-104.842757926},{"id":299,"stateId":"10","stateName":"Durango","name":"El Oro","lat":25.547422001,"lon":-105.210339937},{"id":287,"stateId":"10","stateName":"Durango","name":"General Simón Bolívar","lat":24.777608944,"lon":-103.22236783},{"id":288,"stateId":"10","stateName":"Durango","name":"Gómez Palacio","lat":25.726559328,"lon":-103.490063091},{"id":289,"stateId":"10","stateName":"Durango","name":"Guadalupe Victoria","lat":24.41161637,"lon":-104.071840245},{"id":290,"stateId":"10","stateName":"Durango","name":"Guanaceví","lat":25.997023489,"lon":-106.06842797},{"id":291,"stateId":"10","stateName":"Durango","name":"Hidalgo","lat":26.089415118,"lon":-104.814672064},{"id":292,"stateId":"10","stateName":"Durango","name":"Indé","lat":25.726842182,"lon":-104.995719855},{"id":293,"stateId":"10","stateName":"Durango","name":"Lerdo","lat":25.476708356,"lon":-103.684162222},{"id":294,"stateId":"10","stateName":"Durango","name":"Mapimí","lat":26.143299621,"lon":-104.129745931},{"id":295,"stateId":"10","stateName":"Durango","name":"Mezquital","lat":23.0044033,"lon":-104.549006639},{"id":296,"stateId":"10","stateName":"Durango","name":"Nazas","lat":25.244153113,"lon":-104.076293582},{"id":297,"stateId":"10","stateName":"Durango","name":"Nombre de Dios","lat":23.814726286,"lon":-104.210651846},{"id":320,"stateId":"10","stateName":"Durango","name":"Nuevo Ideal","lat":24.842071304,"lon":-105.040432},{"id":298,"stateId":"10","stateName":"Durango","name":"Ocampo","lat":26.482381249,"lon":-105.67871704},{"id":300,"stateId":"10","stateName":"Durango","name":"Otáez","lat":24.699801712,"lon":-105.935214101},{"id":301,"stateId":"10","stateName":"Durango","name":"Pánuco de Coronado","lat":24.494287709,"lon":-104.349638794},{"id":302,"stateId":"10","stateName":"Durango","name":"Peñón Blanco","lat":24.785508587,"lon":-104.082901659},{"id":303,"stateId":"10","stateName":"Durango","name":"Poanas","lat":24.002649822,"lon":-104.018861252},{"id":304,"stateId":"10","stateName":"Durango","name":"Pueblo Nuevo","lat":23.410847837,"lon":-105.312756887},{"id":305,"stateId":"10","stateName":"Durango","name":"Rodeo","lat":25.196713154,"lon":-104.552920788},{"id":306,"stateId":"10","stateName":"Durango","name":"San Bernardo","lat":26.186363997,"lon":-105.669424675},{"id":307,"stateId":"10","stateName":"Durango","name":"San Dimas","lat":24.228580806,"lon":-105.739244422},{"id":308,"stateId":"10","stateName":"Durango","name":"San Juan de Guadalupe","lat":24.65822662,"lon":-102.723073066},{"id":309,"stateId":"10","stateName":"Durango","name":"San Juan del Río","lat":24.807005149,"lon":-104.471184621},{"id":310,"stateId":"10","stateName":"Durango","name":"San Luis del Cordero","lat":25.374560033,"lon":-104.308644128},{"id":311,"stateId":"10","stateName":"Durango","name":"San Pedro del Gallo","lat":25.618251836,"lon":-104.397605099},{"id":312,"stateId":"10","stateName":"Durango","name":"Santa Clara","lat":24.496715365,"lon":-103.411018389},{"id":313,"stateId":"10","stateName":"Durango","name":"Santiago Papasquiaro","lat":24.980848335,"lon":-105.693680924},{"id":314,"stateId":"10","stateName":"Durango","name":"Súchil","lat":23.436954151,"lon":-104.148937426},{"id":315,"stateId":"10","stateName":"Durango","name":"Tamazula","lat":24.943638239,"lon":-106.709689394},{"id":316,"stateId":"10","stateName":"Durango","name":"Tepehuanes","lat":25.449427858,"lon":-106.048303175},{"id":317,"stateId":"10","stateName":"Durango","name":"Tlahualilo","lat":26.342189604,"lon":-103.626395146},{"id":318,"stateId":"10","stateName":"Durango","name":"Topia","lat":25.257114553,"lon":-106.592918084},{"id":319,"stateId":"10","stateName":"Durango","name":"Vicente Guerrero","lat":23.734918787,"lon":-103.94821711},{"id":321,"stateId":"11","stateName":"Guanajuato","name":"Abasolo","lat":20.532892708,"lon":-101.536315727},{"id":322,"stateId":"11","stateName":"Guanajuato","name":"Acámbaro","lat":20.052495551,"lon":-100.750018959},{"id":324,"stateId":"11","stateName":"Guanajuato","name":"Apaseo El Alto","lat":20.4214392,"lon":-100.57423424},{"id":325,"stateId":"11","stateName":"Guanajuato","name":"Apaseo El Grande","lat":20.574609844,"lon":-100.620094317},{"id":326,"stateId":"11","stateName":"Guanajuato","name":"Atarjea","lat":21.26367818,"lon":-99.803256806},{"id":327,"stateId":"11","stateName":"Guanajuato","name":"Celaya","lat":20.538256503,"lon":-100.787582459},{"id":329,"stateId":"11","stateName":"Guanajuato","name":"Comonfort","lat":20.740354771,"lon":-100.791091476},{"id":330,"stateId":"11","stateName":"Guanajuato","name":"Coroneo","lat":20.214693632,"lon":-100.384124176},{"id":331,"stateId":"11","stateName":"Guanajuato","name":"Cortazar","lat":20.428358774,"lon":-100.937376877},{"id":332,"stateId":"11","stateName":"Guanajuato","name":"Cuerámaro","lat":20.616480501,"lon":-101.667886747},{"id":333,"stateId":"11","stateName":"Guanajuato","name":"Doctor Mora","lat":21.139081256,"lon":-100.35826546},{"id":334,"stateId":"11","stateName":"Guanajuato","name":"Dolores Hidalgo Cuna de la Independencia Nacional","lat":21.14730212,"lon":-100.935817138},{"id":335,"stateId":"11","stateName":"Guanajuato","name":"Guanajuato","lat":21.018135107,"lon":-101.237880786},{"id":336,"stateId":"11","stateName":"Guanajuato","name":"Huanímaro","lat":20.367797235,"lon":-101.49836273},{"id":337,"stateId":"11","stateName":"Guanajuato","name":"Irapuato","lat":20.699261994,"lon":-101.368382237},{"id":338,"stateId":"11","stateName":"Guanajuato","name":"Jaral del Progreso","lat":20.357313189,"lon":-101.051105877},{"id":339,"stateId":"11","stateName":"Guanajuato","name":"Jerécuaro","lat":20.19736478,"lon":-100.507275643},{"id":340,"stateId":"11","stateName":"Guanajuato","name":"León","lat":21.124510057,"lon":-101.62239708},{"id":328,"stateId":"11","stateName":"Guanajuato","name":"Manuel Doblado","lat":20.712401182,"lon":-101.880455484},{"id":341,"stateId":"11","stateName":"Guanajuato","name":"Moroleón","lat":20.084093047,"lon":-101.244522851},{"id":342,"stateId":"11","stateName":"Guanajuato","name":"Ocampo","lat":21.579148663,"lon":-101.472466518},{"id":343,"stateId":"11","stateName":"Guanajuato","name":"Pénjamo","lat":20.40139473,"lon":-101.815182585},{"id":344,"stateId":"11","stateName":"Guanajuato","name":"Pueblo Nuevo","lat":20.548656832,"lon":-101.361811847},{"id":345,"stateId":"11","stateName":"Guanajuato","name":"Purísima del Rincón","lat":20.928741943,"lon":-101.924476661},{"id":346,"stateId":"11","stateName":"Guanajuato","name":"Romita","lat":20.824984578,"lon":-101.595638523},{"id":347,"stateId":"11","stateName":"Guanajuato","name":"Salamanca","lat":20.62374627,"lon":-101.165027995},{"id":348,"stateId":"11","stateName":"Guanajuato","name":"Salvatierra","lat":20.208278158,"lon":-100.914461263},{"id":349,"stateId":"11","stateName":"Guanajuato","name":"San Diego de la Unión","lat":21.443100857,"lon":-100.846354242},{"id":350,"stateId":"11","stateName":"Guanajuato","name":"San Felipe","lat":21.50291247,"lon":-101.233323163},{"id":351,"stateId":"11","stateName":"Guanajuato","name":"San Francisco del Rincón","lat":20.918067299,"lon":-101.786086237},{"id":352,"stateId":"11","stateName":"Guanajuato","name":"San José Iturbide","lat":21.000389011,"lon":-100.38895696},{"id":353,"stateId":"11","stateName":"Guanajuato","name":"San Luis de la Paz","lat":21.39768419,"lon":-100.476816485},{"id":323,"stateId":"11","stateName":"Guanajuato","name":"San Miguel de Allende","lat":20.923921737,"lon":-100.737599281},{"id":354,"stateId":"11","stateName":"Guanajuato","name":"Santa Catarina","lat":21.142544395,"lon":-100.070932439},{"id":355,"stateId":"11","stateName":"Guanajuato","name":"Santa Cruz de Juventino Rosas","lat":20.673854431,"lon":-100.99561506},{"id":356,"stateId":"11","stateName":"Guanajuato","name":"Santiago Maravatío","lat":20.153626808,"lon":-100.986265713},{"id":357,"stateId":"11","stateName":"Guanajuato","name":"Silao de la Victoria","lat":20.962149165,"lon":-101.436835831},{"id":358,"stateId":"11","stateName":"Guanajuato","name":"Tarandacuao","lat":20.003153928,"lon":-100.527957404},{"id":359,"stateId":"11","stateName":"Guanajuato","name":"Tarimoro","lat":20.294406744,"lon":-100.742210065},{"id":360,"stateId":"11","stateName":"Guanajuato","name":"Tierra Blanca","lat":21.02928051,"lon":-100.157782154},{"id":361,"stateId":"11","stateName":"Guanajuato","name":"Uriangato","lat":20.119808607,"lon":-101.153976571},{"id":362,"stateId":"11","stateName":"Guanajuato","name":"Valle de Santiago","lat":20.377894253,"lon":-101.26971574},{"id":363,"stateId":"11","stateName":"Guanajuato","name":"Victoria","lat":21.364539337,"lon":-100.214462683},{"id":364,"stateId":"11","stateName":"Guanajuato","name":"Villagrán","lat":20.540201027,"lon":-100.991227006},{"id":365,"stateId":"11","stateName":"Guanajuato","name":"Xichú","lat":21.357173651,"lon":-99.978609712},{"id":366,"stateId":"11","stateName":"Guanajuato","name":"Yuriria","lat":20.181902576,"lon":-101.224814025},{"id":367,"stateId":"12","stateName":"Guerrero","name":"Acapulco de Juárez","lat":16.956746969,"lon":-99.714219407},{"id":442,"stateId":"12","stateName":"Guerrero","name":"Acatepec","lat":17.166586613,"lon":-98.978728518},{"id":368,"stateId":"12","stateName":"Guerrero","name":"Ahuacuotzingo","lat":17.752083244,"lon":-98.95192814},{"id":369,"stateId":"12","stateName":"Guerrero","name":"Ajuchitlán del Progreso","lat":17.914203034,"lon":-100.611152643},{"id":370,"stateId":"12","stateName":"Guerrero","name":"Alcozauca de Guerrero","lat":17.376732304,"lon":-98.366132939},{"id":371,"stateId":"12","stateName":"Guerrero","name":"Alpoyeca","lat":17.644092364,"lon":-98.505612973},{"id":372,"stateId":"12","stateName":"Guerrero","name":"Apaxtla","lat":18.090352685,"lon":-99.980438287},{"id":373,"stateId":"12","stateName":"Guerrero","name":"Arcelia","lat":18.244540124,"lon":-100.196154898},{"id":374,"stateId":"12","stateName":"Guerrero","name":"Atenango del Río","lat":18.143151574,"lon":-99.065050106},{"id":375,"stateId":"12","stateName":"Guerrero","name":"Atlamajalcingo del Monte","lat":17.288225146,"lon":-98.567714116},{"id":376,"stateId":"12","stateName":"Guerrero","name":"Atlixtac","lat":17.513140395,"lon":-98.901120495},{"id":377,"stateId":"12","stateName":"Guerrero","name":"Atoyac de Álvarez","lat":17.332982067,"lon":-100.343157006},{"id":378,"stateId":"12","stateName":"Guerrero","name":"Ayutla de los Libres","lat":16.956524609,"lon":-99.063890248},{"id":379,"stateId":"12","stateName":"Guerrero","name":"Azoyú","lat":16.694645855,"lon":-98.571589517},{"id":380,"stateId":"12","stateName":"Guerrero","name":"Benito Juárez","lat":17.106881198,"lon":-100.455310659},{"id":381,"stateId":"12","stateName":"Guerrero","name":"Buenavista de Cuéllar","lat":18.460934709,"lon":-99.420303449},{"id":394,"stateId":"12","stateName":"Guerrero","name":"Chilapa de Álvarez","lat":17.520962463,"lon":-99.110687439},{"id":395,"stateId":"12","stateName":"Guerrero","name":"Chilpancingo de los Bravo","lat":17.389959732,"lon":-99.697080919},{"id":382,"stateId":"12","stateName":"Guerrero","name":"Coahuayutla de José María Izazaga","lat":18.280544162,"lon":-101.64022154},{"id":444,"stateId":"12","stateName":"Guerrero","name":"Cochoapa El Grande","lat":17.109668342,"lon":-98.422632984},{"id":383,"stateId":"12","stateName":"Guerrero","name":"Cocula","lat":18.131956297,"lon":-99.714186061},{"id":384,"stateId":"12","stateName":"Guerrero","name":"Copala","lat":16.608911811,"lon":-98.931283485},{"id":385,"stateId":"12","stateName":"Guerrero","name":"Copalillo","lat":17.979076876,"lon":-99.053891388},{"id":386,"stateId":"12","stateName":"Guerrero","name":"Copanatoyac","lat":17.432975695,"lon":-98.701516359},{"id":387,"stateId":"12","stateName":"Guerrero","name":"Coyuca de Benítez","lat":17.139843024,"lon":-100.064117742},{"id":388,"stateId":"12","stateName":"Guerrero","name":"Coyuca de Catalán","lat":18.078157417,"lon":-100.930380278},{"id":389,"stateId":"12","stateName":"Guerrero","name":"Cuajinicuilapa","lat":16.460986998,"lon":-98.519955838},{"id":390,"stateId":"12","stateName":"Guerrero","name":"Cualác","lat":17.739757635,"lon":-98.669768578},{"id":391,"stateId":"12","stateName":"Guerrero","name":"Cuautepec","lat":16.720239426,"lon":-98.964646448},{"id":392,"stateId":"12","stateName":"Guerrero","name":"Cuetzala del Progreso","lat":18.11960571,"lon":-99.815566009},{"id":393,"stateId":"12","stateName":"Guerrero","name":"Cutzamala de Pinzón","lat":18.658446076,"lon":-100.617014674},{"id":441,"stateId":"12","stateName":"Guerrero","name":"Eduardo Neri","lat":17.800981863,"lon":-99.608655903},{"id":396,"stateId":"12","stateName":"Guerrero","name":"Florencio Villarreal","lat":16.695101077,"lon":-99.133107242},{"id":397,"stateId":"12","stateName":"Guerrero","name":"General Canuto A. Neri","lat":18.439075779,"lon":-100.107076873},{"id":398,"stateId":"12","stateName":"Guerrero","name":"General Heliodoro Castillo","lat":17.7262892,"lon":-100.023040739},{"id":399,"stateId":"12","stateName":"Guerrero","name":"Huamuxtitlán","lat":17.810360683,"lon":-98.544694147},{"id":400,"stateId":"12","stateName":"Guerrero","name":"Huitzuco de los Figueroa","lat":18.229309126,"lon":-99.253485624},{"id":401,"stateId":"12","stateName":"Guerrero","name":"Iguala de la Independencia","lat":18.219614444,"lon":-99.581098306},{"id":402,"stateId":"12","stateName":"Guerrero","name":"Igualapa","lat":16.797596326,"lon":-98.492479061},{"id":447,"stateId":"12","stateName":"Guerrero","name":"Iliatenco","lat":17.04752104,"lon":-98.637503608},{"id":403,"stateId":"12","stateName":"Guerrero","name":"Ixcateopan de Cuauhtémoc","lat":18.460980766,"lon":-99.764341041},{"id":445,"stateId":"12","stateName":"Guerrero","name":"José Joaquín de Herrera","lat":17.441695468,"lon":-98.996107653},{"id":405,"stateId":"12","stateName":"Guerrero","name":"Juan R. Escudero","lat":17.139533873,"lon":-99.47136859},{"id":446,"stateId":"12","stateName":"Guerrero","name":"Juchitán","lat":16.589474581,"lon":-98.67132372},{"id":434,"stateId":"12","stateName":"Guerrero","name":"La Unión de Isidoro Montes de Oca","lat":18.02397619,"lon":-101.851760957},{"id":75562,"stateId":"12","stateName":"Guerrero","name":"Las Vigas"},{"id":406,"stateId":"12","stateName":"Guerrero","name":"Leonardo Bravo","lat":17.631000244,"lon":-99.792782969},{"id":407,"stateId":"12","stateName":"Guerrero","name":"Malinaltepec","lat":17.150904007,"lon":-98.69520949},{"id":443,"stateId":"12","stateName":"Guerrero","name":"Marquelia","lat":16.646455588,"lon":-98.748982249},{"id":408,"stateId":"12","stateName":"Guerrero","name":"Mártir de Cuilapan","lat":17.831980446,"lon":-99.354214777},{"id":409,"stateId":"12","stateName":"Guerrero","name":"Metlatonoc","lat":17.136360572,"lon":-98.44949934},{"id":410,"stateId":"12","stateName":"Guerrero","name":"Mochitlán","lat":17.333901516,"lon":-99.369093008},{"id":75564,"stateId":"12","stateName":"Guerrero","name":"Ñuu Savi"},{"id":411,"stateId":"12","stateName":"Guerrero","name":"Olinala","lat":17.89598861,"lon":-98.783239213},{"id":412,"stateId":"12","stateName":"Guerrero","name":"Ometepec","lat":16.663301335,"lon":-98.349175827},{"id":413,"stateId":"12","stateName":"Guerrero","name":"Pedro Ascencio Alquisiras","lat":18.538821986,"lon":-99.866796808},{"id":414,"stateId":"12","stateName":"Guerrero","name":"Petatlán","lat":17.618507405,"lon":-101.155943982},{"id":415,"stateId":"12","stateName":"Guerrero","name":"Pilcaya","lat":18.703986591,"lon":-99.607958893},{"id":416,"stateId":"12","stateName":"Guerrero","name":"Pungarabato","lat":18.345558655,"lon":-100.609685702},{"id":417,"stateId":"12","stateName":"Guerrero","name":"Quechultenango","lat":17.310383647,"lon":-99.184851588},{"id":418,"stateId":"12","stateName":"Guerrero","name":"San Luis Acatlán","lat":16.877081247,"lon":-98.746704815},{"id":419,"stateId":"12","stateName":"Guerrero","name":"San Marcos","lat":16.808979306,"lon":-99.409171833},{"id":420,"stateId":"12","stateName":"Guerrero","name":"San Miguel Totolapan","lat":17.842475633,"lon":-100.319694026},{"id":75563,"stateId":"12","stateName":"Guerrero","name":"San Nicolás"},{"id":75561,"stateId":"12","stateName":"Guerrero","name":"Santa Cruz del Rincón"},{"id":421,"stateId":"12","stateName":"Guerrero","name":"Taxco de Alarcón","lat":18.517765824,"lon":-99.596978942},{"id":422,"stateId":"12","stateName":"Guerrero","name":"Tecoanapa","lat":16.979627262,"lon":-99.293209269},{"id":423,"stateId":"12","stateName":"Guerrero","name":"Tecpan de Galeana","lat":17.400591735,"lon":-100.745649489},{"id":424,"stateId":"12","stateName":"Guerrero","name":"Teloloapan","lat":18.357938416,"lon":-99.91648837},{"id":425,"stateId":"12","stateName":"Guerrero","name":"Tepecoacuilco de Trujano","lat":18.101295371,"lon":-99.46557746},{"id":426,"stateId":"12","stateName":"Guerrero","name":"Tetipac","lat":18.647712524,"lon":-99.671087023},{"id":427,"stateId":"12","stateName":"Guerrero","name":"Tixtla de Guerrero","lat":17.596458326,"lon":-99.365840812},{"id":428,"stateId":"12","stateName":"Guerrero","name":"Tlacoachistlahuaca","lat":16.944993054,"lon":-98.281373724},{"id":429,"stateId":"12","stateName":"Guerrero","name":"Tlacoapa","lat":17.230462686,"lon":-98.784413765},{"id":430,"stateId":"12","stateName":"Guerrero","name":"Tlalchapa","lat":18.426394317,"lon":-100.430938978},{"id":431,"stateId":"12","stateName":"Guerrero","name":"Tlalixtaquilla de Maldonado","lat":17.570450694,"lon":-98.407354856},{"id":432,"stateId":"12","stateName":"Guerrero","name":"Tlapa de Comonfort","lat":17.562325852,"lon":-98.615176252},{"id":433,"stateId":"12","stateName":"Guerrero","name":"Tlapehuala","lat":18.279395416,"lon":-100.451377755},{"id":435,"stateId":"12","stateName":"Guerrero","name":"Xalpatláhuac","lat":17.427333401,"lon":-98.540496465},{"id":436,"stateId":"12","stateName":"Guerrero","name":"Xochihuehuetlán","lat":17.900516419,"lon":-98.50587138},{"id":437,"stateId":"12","stateName":"Guerrero","name":"Xochistlahuaca","lat":16.872372225,"lon":-98.154550317},{"id":438,"stateId":"12","stateName":"Guerrero","name":"Zapotitlán Tablas","lat":17.321008506,"lon":-98.833832349},{"id":404,"stateId":"12","stateName":"Guerrero","name":"Zihuatanejo de Azueta","lat":17.816434527,"lon":-101.438375943},{"id":439,"stateId":"12","stateName":"Guerrero","name":"Zirándaro","lat":18.341796791,"lon":-101.221358104},{"id":440,"stateId":"12","stateName":"Guerrero","name":"Zitlala","lat":17.746267698,"lon":-99.186628927},{"id":448,"stateId":"13","stateName":"Hidalgo","name":"Acatlán","lat":20.206417289,"lon":-98.440346345},{"id":449,"stateId":"13","stateName":"Hidalgo","name":"Acaxochitlán","lat":20.159847386,"lon":-98.198401091},{"id":450,"stateId":"13","stateName":"Hidalgo","name":"Actopan","lat":20.314539398,"lon":-98.889692286},{"id":451,"stateId":"13","stateName":"Hidalgo","name":"Agua Blanca de Iturbide","lat":20.36092381,"lon":-98.370153975},{"id":452,"stateId":"13","stateName":"Hidalgo","name":"Ajacuba","lat":20.119826549,"lon":-99.078038009},{"id":453,"stateId":"13","stateName":"Hidalgo","name":"Alfajayucan","lat":20.407093169,"lon":-99.405404823},{"id":454,"stateId":"13","stateName":"Hidalgo","name":"Almoloya","lat":19.741621753,"lon":-98.327077833},{"id":455,"stateId":"13","stateName":"Hidalgo","name":"Apan","lat":19.722905741,"lon":-98.447001013},{"id":457,"stateId":"13","stateName":"Hidalgo","name":"Atitalaquia","lat":20.054745928,"lon":-99.221332561},{"id":458,"stateId":"13","stateName":"Hidalgo","name":"Atlapexco","lat":21.027309691,"lon":-98.36355253},{"id":460,"stateId":"13","stateName":"Hidalgo","name":"Atotonilco de Tula","lat":19.973458884,"lon":-99.231378081},{"id":459,"stateId":"13","stateName":"Hidalgo","name":"Atotonilco El Grande","lat":20.354838008,"lon":-98.676487829},{"id":461,"stateId":"13","stateName":"Hidalgo","name":"Calnali","lat":20.906055292,"lon":-98.548491875},{"id":462,"stateId":"13","stateName":"Hidalgo","name":"Cardonal","lat":20.599164172,"lon":-99.060197562},{"id":464,"stateId":"13","stateName":"Hidalgo","name":"Chapantongo","lat":20.263685959,"lon":-99.471643799},{"id":465,"stateId":"13","stateName":"Hidalgo","name":"Chapulhuacán","lat":21.128437838,"lon":-98.949671488},{"id":466,"stateId":"13","stateName":"Hidalgo","name":"Chilcuautla","lat":20.324319689,"lon":-99.255130834},{"id":463,"stateId":"13","stateName":"Hidalgo","name":"Cuautepec de Hinojosa","lat":19.984305139,"lon":-98.281662056},{"id":456,"stateId":"13","stateName":"Hidalgo","name":"El Arenal","lat":20.2171534,"lon":-98.882567977},{"id":467,"stateId":"13","stateName":"Hidalgo","name":"Eloxochitlán","lat":20.741408318,"lon":-98.880334835},{"id":468,"stateId":"13","stateName":"Hidalgo","name":"Emiliano Zapata","lat":19.659292466,"lon":-98.600264758},{"id":469,"stateId":"13","stateName":"Hidalgo","name":"Epazoyucan","lat":20.031586706,"lon":-98.643484906},{"id":470,"stateId":"13","stateName":"Hidalgo","name":"Francisco I. Madero","lat":20.235284133,"lon":-99.080286037},{"id":471,"stateId":"13","stateName":"Hidalgo","name":"Huasca de Ocampo","lat":20.225905726,"lon":-98.543122474},{"id":472,"stateId":"13","stateName":"Hidalgo","name":"Huautla","lat":21.038250739,"lon":-98.247141777},{"id":473,"stateId":"13","stateName":"Hidalgo","name":"Huazalingo","lat":20.997494032,"lon":-98.489134834},{"id":474,"stateId":"13","stateName":"Hidalgo","name":"Huehuetla","lat":20.514074732,"lon":-98.064192756},{"id":475,"stateId":"13","stateName":"Hidalgo","name":"Huejutla de Reyes","lat":21.127553179,"lon":-98.450986058},{"id":476,"stateId":"13","stateName":"Hidalgo","name":"Huichapan","lat":20.383899938,"lon":-99.680700016},{"id":477,"stateId":"13","stateName":"Hidalgo","name":"Ixmiquilpan","lat":20.532515037,"lon":-99.201326483},{"id":478,"stateId":"13","stateName":"Hidalgo","name":"Jacala de Ledezma","lat":20.96995863,"lon":-99.147217467},{"id":479,"stateId":"13","stateName":"Hidalgo","name":"Jaltocán","lat":21.148475965,"lon":-98.527574024},{"id":480,"stateId":"13","stateName":"Hidalgo","name":"Juárez Hidalgo","lat":20.831580911,"lon":-98.835747227},{"id":487,"stateId":"13","stateName":"Hidalgo","name":"La Misión","lat":21.07096414,"lon":-99.070512161},{"id":481,"stateId":"13","stateName":"Hidalgo","name":"Lolotla","lat":20.962165856,"lon":-98.723309048},{"id":482,"stateId":"13","stateName":"Hidalgo","name":"Metepec","lat":20.256971331,"lon":-98.34191076},{"id":484,"stateId":"13","stateName":"Hidalgo","name":"Metztitlán","lat":20.565446923,"lon":-98.80965304},{"id":498,"stateId":"13","stateName":"Hidalgo","name":"Mineral de la Reforma","lat":20.058771653,"lon":-98.719688973},{"id":485,"stateId":"13","stateName":"Hidalgo","name":"Mineral del Chico","lat":20.223048385,"lon":-98.753561357},{"id":486,"stateId":"13","stateName":"Hidalgo","name":"Mineral del Monte","lat":20.140359344,"lon":-98.658834102},{"id":488,"stateId":"13","stateName":"Hidalgo","name":"Mixquiahuala de Juárez","lat":20.223844397,"lon":-99.180735945},{"id":489,"stateId":"13","stateName":"Hidalgo","name":"Molango de Escamilla","lat":20.864386277,"lon":-98.776415422},{"id":490,"stateId":"13","stateName":"Hidalgo","name":"Nicolás Flores","lat":20.786473709,"lon":-99.175412841},{"id":491,"stateId":"13","stateName":"Hidalgo","name":"Nopala de Villagrán","lat":20.233113426,"lon":-99.672776464},{"id":492,"stateId":"13","stateName":"Hidalgo","name":"Omitlán de Juárez","lat":20.173745227,"lon":-98.621964543},{"id":495,"stateId":"13","stateName":"Hidalgo","name":"Pachuca de Soto","lat":20.102102661,"lon":-98.78200796},{"id":494,"stateId":"13","stateName":"Hidalgo","name":"Pacula","lat":20.999762896,"lon":-99.315412621},{"id":496,"stateId":"13","stateName":"Hidalgo","name":"Pisaflores","lat":21.234488256,"lon":-98.988832403},{"id":497,"stateId":"13","stateName":"Hidalgo","name":"Progreso de Obregón","lat":20.314328708,"lon":-99.178154814},{"id":483,"stateId":"13","stateName":"Hidalgo","name":"San Agustín Metzquititlán","lat":20.523798073,"lon":-98.605286414},{"id":499,"stateId":"13","stateName":"Hidalgo","name":"San Agustín Tlaxiaca","lat":20.095582902,"lon":-98.940031194},{"id":500,"stateId":"13","stateName":"Hidalgo","name":"San Bartolo Tutotepec","lat":20.468447874,"lon":-98.191316462},{"id":493,"stateId":"13","stateName":"Hidalgo","name":"San Felipe Orizatlán","lat":21.260346261,"lon":-98.581657261},{"id":501,"stateId":"13","stateName":"Hidalgo","name":"San Salvador","lat":20.304748403,"lon":-99.047857869},{"id":502,"stateId":"13","stateName":"Hidalgo","name":"Santiago de Anaya","lat":20.412370172,"lon":-98.982852796},{"id":503,"stateId":"13","stateName":"Hidalgo","name":"Santiago Tulantepec de Lugo Guerrero","lat":20.035684394,"lon":-98.392806164},{"id":504,"stateId":"13","stateName":"Hidalgo","name":"Singuilucan","lat":19.987603197,"lon":-98.495459494},{"id":505,"stateId":"13","stateName":"Hidalgo","name":"Tasquillo","lat":20.542339788,"lon":-99.375831116},{"id":506,"stateId":"13","stateName":"Hidalgo","name":"Tecozautla","lat":20.539262747,"lon":-99.632431208},{"id":507,"stateId":"13","stateName":"Hidalgo","name":"Tenango de Doria","lat":20.343358147,"lon":-98.210833696},{"id":508,"stateId":"13","stateName":"Hidalgo","name":"Tepeapulco","lat":19.815545816,"lon":-98.494760149},{"id":509,"stateId":"13","stateName":"Hidalgo","name":"Tepehuacán de Guerrero","lat":21.061429524,"lon":-98.832943268},{"id":510,"stateId":"13","stateName":"Hidalgo","name":"Tepeji del Río de Ocampo","lat":19.902666788,"lon":-99.363493067},{"id":511,"stateId":"13","stateName":"Hidalgo","name":"Tepetitlán","lat":20.194219452,"lon":-99.398703389},{"id":512,"stateId":"13","stateName":"Hidalgo","name":"Tetepango","lat":20.114404925,"lon":-99.151827941},{"id":514,"stateId":"13","stateName":"Hidalgo","name":"Tezontepec de Aldama","lat":20.178892619,"lon":-99.293274947},{"id":515,"stateId":"13","stateName":"Hidalgo","name":"Tianguistengo","lat":20.780684145,"lon":-98.539134357},{"id":516,"stateId":"13","stateName":"Hidalgo","name":"Tizayuca","lat":19.852535049,"lon":-98.961179903},{"id":517,"stateId":"13","stateName":"Hidalgo","name":"Tlahuelilpan","lat":20.134365315,"lon":-99.208548819},{"id":518,"stateId":"13","stateName":"Hidalgo","name":"Tlahuiltepa","lat":20.86659311,"lon":-98.972389317},{"id":519,"stateId":"13","stateName":"Hidalgo","name":"Tlanalapa","lat":19.835153444,"lon":-98.586948518},{"id":520,"stateId":"13","stateName":"Hidalgo","name":"Tlanchinol","lat":21.031844009,"lon":-98.64818378},{"id":521,"stateId":"13","stateName":"Hidalgo","name":"Tlaxcoapan","lat":20.097119034,"lon":-99.237042558},{"id":522,"stateId":"13","stateName":"Hidalgo","name":"Tolcayuca","lat":19.95436782,"lon":-98.926490191},{"id":523,"stateId":"13","stateName":"Hidalgo","name":"Tula de Allende","lat":20.064146229,"lon":-99.376718192},{"id":524,"stateId":"13","stateName":"Hidalgo","name":"Tulancingo de Bravo","lat":20.12362325,"lon":-98.350906709},{"id":513,"stateId":"13","stateName":"Hidalgo","name":"Villa de Tezontepec","lat":19.912819284,"lon":-98.80335696},{"id":525,"stateId":"13","stateName":"Hidalgo","name":"Xochiatipan","lat":20.857857624,"lon":-98.288090183},{"id":526,"stateId":"13","stateName":"Hidalgo","name":"Xochicoatlán","lat":20.791430722,"lon":-98.641260354},{"id":527,"stateId":"13","stateName":"Hidalgo","name":"Yahualica","lat":20.91625047,"lon":-98.383518883},{"id":528,"stateId":"13","stateName":"Hidalgo","name":"Zacualtipán de Ángeles","lat":20.650751785,"lon":-98.586724193},{"id":529,"stateId":"13","stateName":"Hidalgo","name":"Zapotlán de Juárez","lat":19.989459296,"lon":-98.85887563},{"id":530,"stateId":"13","stateName":"Hidalgo","name":"Zempoala","lat":19.923125194,"lon":-98.672318843},{"id":531,"stateId":"13","stateName":"Hidalgo","name":"Zimapán","lat":20.752880108,"lon":-99.365725673},{"id":532,"stateId":"14","stateName":"Jalisco","name":"Acatic","lat":20.770846321,"lon":-102.908115938},{"id":533,"stateId":"14","stateName":"Jalisco","name":"Acatlán de Juárez","lat":20.427130011,"lon":-103.608547984},{"id":534,"stateId":"14","stateName":"Jalisco","name":"Ahualulco de Mercado","lat":20.711033344,"lon":-103.934526814},{"id":535,"stateId":"14","stateName":"Jalisco","name":"Amacueca","lat":20.000168492,"lon":-103.621509537},{"id":536,"stateId":"14","stateName":"Jalisco","name":"Amatitán","lat":20.849489475,"lon":-103.716597389},{"id":537,"stateId":"14","stateName":"Jalisco","name":"Ameca","lat":20.541561569,"lon":-104.078546123},{"id":539,"stateId":"14","stateName":"Jalisco","name":"Arandas","lat":20.765700915,"lon":-102.300166357},{"id":541,"stateId":"14","stateName":"Jalisco","name":"Atemajac de Brizuela","lat":20.172138609,"lon":-103.730564357},{"id":542,"stateId":"14","stateName":"Jalisco","name":"Atengo","lat":20.319336178,"lon":-104.27152436},{"id":543,"stateId":"14","stateName":"Jalisco","name":"Atenguillo","lat":20.337401877,"lon":-104.550218904},{"id":544,"stateId":"14","stateName":"Jalisco","name":"Atotonilco El Alto","lat":20.548502746,"lon":-102.537799112},{"id":545,"stateId":"14","stateName":"Jalisco","name":"Atoyac","lat":19.996462049,"lon":-103.469786866},{"id":546,"stateId":"14","stateName":"Jalisco","name":"Autlán de Navarro","lat":19.741669337,"lon":-104.313293154},{"id":547,"stateId":"14","stateName":"Jalisco","name":"Ayotlán","lat":20.48837262,"lon":-102.341930748},{"id":548,"stateId":"14","stateName":"Jalisco","name":"Ayutla","lat":20.048966658,"lon":-104.434171737},{"id":550,"stateId":"14","stateName":"Jalisco","name":"Bolaños","lat":21.873941933,"lon":-103.920674814},{"id":551,"stateId":"14","stateName":"Jalisco","name":"Cabo Corrientes","lat":20.342607843,"lon":-105.404193289},{"id":648,"stateId":"14","stateName":"Jalisco","name":"Cañadas de Obregón","lat":21.159092674,"lon":-102.700477465},{"id":552,"stateId":"14","stateName":"Jalisco","name":"Casimiro Castillo","lat":19.600669238,"lon":-104.474207174},{"id":561,"stateId":"14","stateName":"Jalisco","name":"Chapala","lat":20.259810286,"lon":-103.18782846},{"id":562,"stateId":"14","stateName":"Jalisco","name":"Chimaltitán","lat":21.729780157,"lon":-103.659861379},{"id":563,"stateId":"14","stateName":"Jalisco","name":"Chiquilistlán","lat":20.080919087,"lon":-103.87832143},{"id":553,"stateId":"14","stateName":"Jalisco","name":"Cihuatlán","lat":19.27497337,"lon":-104.614422541},{"id":555,"stateId":"14","stateName":"Jalisco","name":"Cocula","lat":20.389978472,"lon":-103.822790209},{"id":556,"stateId":"14","stateName":"Jalisco","name":"Colotlán","lat":22.089731811,"lon":-103.284584028},{"id":557,"stateId":"14","stateName":"Jalisco","name":"Concepción de Buenos Aires","lat":19.982261158,"lon":-103.234584313},{"id":558,"stateId":"14","stateName":"Jalisco","name":"Cuautitlán de García Barragán","lat":19.435646718,"lon":-104.311671035},{"id":559,"stateId":"14","stateName":"Jalisco","name":"Cuautla","lat":20.192769012,"lon":-104.510720201},{"id":560,"stateId":"14","stateName":"Jalisco","name":"Cuquío","lat":20.95269822,"lon":-103.028077597},{"id":564,"stateId":"14","stateName":"Jalisco","name":"Degollado","lat":20.447776254,"lon":-102.167133194},{"id":565,"stateId":"14","stateName":"Jalisco","name":"Ejutla","lat":19.91270516,"lon":-104.082452232},{"id":540,"stateId":"14","stateName":"Jalisco","name":"El Arenal","lat":20.757308904,"lon":-103.682157474},{"id":568,"stateId":"14","stateName":"Jalisco","name":"El Grullo","lat":19.801461439,"lon":-104.19493186},{"id":585,"stateId":"14","stateName":"Jalisco","name":"El Limón","lat":19.839883222,"lon":-104.099722117},{"id":601,"stateId":"14","stateName":"Jalisco","name":"El Salto","lat":20.539191913,"lon":-103.247074387},{"id":566,"stateId":"14","stateName":"Jalisco","name":"Encarnación de Díaz","lat":21.555663405,"lon":-102.18976047},{"id":567,"stateId":"14","stateName":"Jalisco","name":"Etzatlán","lat":20.743842914,"lon":-104.121685904},{"id":610,"stateId":"14","stateName":"Jalisco","name":"Gómez Farías","lat":19.856865107,"lon":-103.416458869},{"id":569,"stateId":"14","stateName":"Jalisco","name":"Guachinango","lat":20.678044484,"lon":-104.420406369},{"id":570,"stateId":"14","stateName":"Jalisco","name":"Guadalajara","lat":20.675429695,"lon":-103.336189758},{"id":571,"stateId":"14","stateName":"Jalisco","name":"Hostotipaquillo","lat":21.057276627,"lon":-104.074722092},{"id":572,"stateId":"14","stateName":"Jalisco","name":"Huejúcar","lat":22.318302224,"lon":-103.233714031},{"id":573,"stateId":"14","stateName":"Jalisco","name":"Huejuquilla El Alto","lat":22.583282598,"lon":-103.915895547},{"id":575,"stateId":"14","stateName":"Jalisco","name":"Ixtlahuacán de los Membrillos","lat":20.395324557,"lon":-103.210397549},{"id":576,"stateId":"14","stateName":"Jalisco","name":"Ixtlahuacán del Río","lat":20.89823965,"lon":-103.226494989},{"id":577,"stateId":"14","stateName":"Jalisco","name":"Jalostotitlán","lat":21.191655712,"lon":-102.489041851},{"id":578,"stateId":"14","stateName":"Jalisco","name":"Jamay","lat":20.282625758,"lon":-102.67843783},{"id":579,"stateId":"14","stateName":"Jalisco","name":"Jesús María","lat":20.634726396,"lon":-102.118246734},{"id":580,"stateId":"14","stateName":"Jalisco","name":"Jilotlán de los Dolores","lat":19.328900388,"lon":-102.880324402},{"id":581,"stateId":"14","stateName":"Jalisco","name":"Jocotepec","lat":20.316583282,"lon":-103.41499491},{"id":582,"stateId":"14","stateName":"Jalisco","name":"Juanacatlán","lat":20.481230182,"lon":-103.134467904},{"id":583,"stateId":"14","stateName":"Jalisco","name":"Juchitlán","lat":20.053565107,"lon":-104.036440542},{"id":549,"stateId":"14","stateName":"Jalisco","name":"La Barca","lat":20.363629963,"lon":-102.522801253},{"id":574,"stateId":"14","stateName":"Jalisco","name":"La Huerta","lat":19.514202717,"lon":-104.864417242},{"id":588,"stateId":"14","stateName":"Jalisco","name":"La Manzanilla de la Paz","lat":20.021240903,"lon":-103.1082286},{"id":584,"stateId":"14","stateName":"Jalisco","name":"Lagos de Moreno","lat":21.492457896,"lon":-101.879602537},{"id":586,"stateId":"14","stateName":"Jalisco","name":"Magdalena","lat":20.907663302,"lon":-104.031010733},{"id":589,"stateId":"14","stateName":"Jalisco","name":"Mascota","lat":20.578771432,"lon":-104.813193156},{"id":590,"stateId":"14","stateName":"Jalisco","name":"Mazamitla","lat":19.893587109,"lon":-103.070672954},{"id":591,"stateId":"14","stateName":"Jalisco","name":"Mexticacán","lat":21.263157215,"lon":-102.752489693},{"id":592,"stateId":"14","stateName":"Jalisco","name":"Mezquitic","lat":22.221607651,"lon":-103.993820292},{"id":593,"stateId":"14","stateName":"Jalisco","name":"Mixtlán","lat":20.508056106,"lon":-104.452081117},{"id":594,"stateId":"14","stateName":"Jalisco","name":"Ocotlán","lat":20.397361688,"lon":-102.721945462},{"id":595,"stateId":"14","stateName":"Jalisco","name":"Ojuelos de Jalisco","lat":21.811478619,"lon":-101.715727721},{"id":596,"stateId":"14","stateName":"Jalisco","name":"Pihuamo","lat":19.145777863,"lon":-103.382303714},{"id":597,"stateId":"14","stateName":"Jalisco","name":"Poncitlán","lat":20.26999361,"lon":-102.889971894},{"id":598,"stateId":"14","stateName":"Jalisco","name":"Puerto Vallarta","lat":20.699009236,"lon":-105.14931736},{"id":600,"stateId":"14","stateName":"Jalisco","name":"Quitupan","lat":19.803904905,"lon":-102.867012469},{"id":602,"stateId":"14","stateName":"Jalisco","name":"San Cristóbal de la Barranca","lat":21.047559065,"lon":-103.498226932},{"id":603,"stateId":"14","stateName":"Jalisco","name":"San Diego de Alejandría","lat":20.968730856,"lon":-102.023541667},{"id":644,"stateId":"14","stateName":"Jalisco","name":"San Gabriel","lat":19.70889153,"lon":-103.738100374},{"id":656,"stateId":"14","stateName":"Jalisco","name":"San Ignacio Cerro Gordo","lat":20.764640867,"lon":-102.506468477},{"id":604,"stateId":"14","stateName":"Jalisco","name":"San Juan de los Lagos","lat":21.269291724,"lon":-102.295281803},{"id":538,"stateId":"14","stateName":"Jalisco","name":"San Juanito de Escobedo","lat":20.808496998,"lon":-104.006162837},{"id":605,"stateId":"14","stateName":"Jalisco","name":"San Julián","lat":20.99730086,"lon":-102.162023791},{"id":606,"stateId":"14","stateName":"Jalisco","name":"San Marcos","lat":20.823186233,"lon":-104.231170923},{"id":607,"stateId":"14","stateName":"Jalisco","name":"San Martín de Bolaños","lat":21.594778314,"lon":-103.784210958},{"id":608,"stateId":"14","stateName":"Jalisco","name":"San Martín Hidalgo","lat":20.448687742,"lon":-103.903911918},{"id":609,"stateId":"14","stateName":"Jalisco","name":"San Miguel El Alto","lat":20.992239625,"lon":-102.377886037},{"id":629,"stateId":"14","stateName":"Jalisco","name":"San Pedro Tlaquepaque","lat":20.587428405,"lon":-103.355839111},{"id":611,"stateId":"14","stateName":"Jalisco","name":"San Sebastián del Oeste","lat":20.852279478,"lon":-104.825087035},{"id":612,"stateId":"14","stateName":"Jalisco","name":"Santa María de los Ángeles","lat":22.192826433,"lon":-103.182188566},{"id":587,"stateId":"14","stateName":"Jalisco","name":"Santa María del Oro","lat":19.52872216,"lon":-102.838514561},{"id":613,"stateId":"14","stateName":"Jalisco","name":"Sayula","lat":19.861153008,"lon":-103.594444367},{"id":614,"stateId":"14","stateName":"Jalisco","name":"Tala","lat":20.608779499,"lon":-103.690255113},{"id":615,"stateId":"14","stateName":"Jalisco","name":"Talpa de Allende","lat":20.297984835,"lon":-104.950690155},{"id":616,"stateId":"14","stateName":"Jalisco","name":"Tamazula de Gordiano","lat":19.687342601,"lon":-103.178715365},{"id":617,"stateId":"14","stateName":"Jalisco","name":"Tapalpa","lat":19.947823993,"lon":-103.763916813},{"id":618,"stateId":"14","stateName":"Jalisco","name":"Tecalitlán","lat":19.22454182,"lon":-103.192499931},{"id":620,"stateId":"14","stateName":"Jalisco","name":"Techaluta de Montenegro","lat":20.093196262,"lon":-103.574448651},{"id":619,"stateId":"14","stateName":"Jalisco","name":"Tecolotlán","lat":20.257315081,"lon":-104.020877106},{"id":621,"stateId":"14","stateName":"Jalisco","name":"Tenamaxtlán","lat":20.146798859,"lon":-104.166774222},{"id":622,"stateId":"14","stateName":"Jalisco","name":"Teocaltiche","lat":21.480686984,"lon":-102.554472109},{"id":623,"stateId":"14","stateName":"Jalisco","name":"Teocuitatlán de Corona","lat":20.108528368,"lon":-103.344838101},{"id":624,"stateId":"14","stateName":"Jalisco","name":"Tepatitlán de Morelos","lat":20.815574214,"lon":-102.719645074},{"id":625,"stateId":"14","stateName":"Jalisco","name":"Tequila","lat":21.111848061,"lon":-103.780700346},{"id":626,"stateId":"14","stateName":"Jalisco","name":"Teuchitlán","lat":20.679432104,"lon":-103.830991081},{"id":627,"stateId":"14","stateName":"Jalisco","name":"Tizapán El Alto","lat":20.120063463,"lon":-103.071759751},{"id":628,"stateId":"14","stateName":"Jalisco","name":"Tlajomulco de Zúñiga","lat":20.484111316,"lon":-103.428272953},{"id":630,"stateId":"14","stateName":"Jalisco","name":"Tolimán","lat":19.551732804,"lon":-103.930910853},{"id":631,"stateId":"14","stateName":"Jalisco","name":"Tomatlán","lat":19.978291194,"lon":-105.165111009},{"id":632,"stateId":"14","stateName":"Jalisco","name":"Tonalá","lat":20.617724265,"lon":-103.212204174},{"id":633,"stateId":"14","stateName":"Jalisco","name":"Tonaya","lat":19.84728738,"lon":-103.949358539},{"id":634,"stateId":"14","stateName":"Jalisco","name":"Tonila","lat":19.430489461,"lon":-103.534646022},{"id":635,"stateId":"14","stateName":"Jalisco","name":"Totatiche","lat":21.957954812,"lon":-103.478081433},{"id":636,"stateId":"14","stateName":"Jalisco","name":"Tototlán","lat":20.548723444,"lon":-102.747424908},{"id":637,"stateId":"14","stateName":"Jalisco","name":"Tuxcacuesco","lat":19.68081542,"lon":-104.03267246},{"id":638,"stateId":"14","stateName":"Jalisco","name":"Tuxcueca","lat":20.147173864,"lon":-103.245777263},{"id":639,"stateId":"14","stateName":"Jalisco","name":"Tuxpan","lat":19.477707606,"lon":-103.456430044},{"id":640,"stateId":"14","stateName":"Jalisco","name":"Unión de San Antonio","lat":21.153769069,"lon":-101.997227766},{"id":641,"stateId":"14","stateName":"Jalisco","name":"Unión de Tula","lat":19.992658421,"lon":-104.256046467},{"id":642,"stateId":"14","stateName":"Jalisco","name":"Valle de Guadalupe","lat":21.046530697,"lon":-102.649736372},{"id":643,"stateId":"14","stateName":"Jalisco","name":"Valle de Juárez","lat":19.832801577,"lon":-102.971463328},{"id":645,"stateId":"14","stateName":"Jalisco","name":"Villa Corona","lat":20.389378818,"lon":-103.708167173},{"id":646,"stateId":"14","stateName":"Jalisco","name":"Villa Guerrero","lat":22.028018832,"lon":-103.685766176},{"id":647,"stateId":"14","stateName":"Jalisco","name":"Villa Hidalgo","lat":21.667121529,"lon":-102.593047933},{"id":599,"stateId":"14","stateName":"Jalisco","name":"Villa Purificación","lat":19.807748966,"lon":-104.722427177},{"id":649,"stateId":"14","stateName":"Jalisco","name":"Yahualica de González Gallo","lat":21.137373626,"lon":-102.933192145},{"id":650,"stateId":"14","stateName":"Jalisco","name":"Zacoalco de Torres","lat":20.236039943,"lon":-103.566143034},{"id":651,"stateId":"14","stateName":"Jalisco","name":"Zapopan","lat":20.795337059,"lon":-103.494542224},{"id":652,"stateId":"14","stateName":"Jalisco","name":"Zapotiltic","lat":19.620566522,"lon":-103.344873894},{"id":653,"stateId":"14","stateName":"Jalisco","name":"Zapotitlán de Vadillo","lat":19.515267855,"lon":-103.757303656},{"id":654,"stateId":"14","stateName":"Jalisco","name":"Zapotlán del Rey","lat":20.461457367,"lon":-102.924095659},{"id":554,"stateId":"14","stateName":"Jalisco","name":"Zapotlán El Grande","lat":19.710799087,"lon":-103.508875389},{"id":655,"stateId":"14","stateName":"Jalisco","name":"Zapotlanejo","lat":20.63711771,"lon":-103.047803668},{"id":657,"stateId":"15","stateName":"México","name":"Acambay de Ruíz Castañeda","lat":19.972943161,"lon":-99.871532805},{"id":658,"stateId":"15","stateName":"México","name":"Acolman","lat":19.634011914,"lon":-98.919251866},{"id":659,"stateId":"15","stateName":"México","name":"Aculco","lat":20.115677234,"lon":-99.833345823},{"id":660,"stateId":"15","stateName":"México","name":"Almoloya de Alquisiras","lat":18.832960348,"lon":-99.866799691},{"id":661,"stateId":"15","stateName":"México","name":"Almoloya de Juárez","lat":19.405568724,"lon":-99.829439127},{"id":662,"stateId":"15","stateName":"México","name":"Almoloya del Río","lat":19.158773758,"lon":-99.491880356},{"id":663,"stateId":"15","stateName":"México","name":"Amanalco","lat":19.250931928,"lon":-99.988390767},{"id":664,"stateId":"15","stateName":"México","name":"Amatepec","lat":18.702992144,"lon":-100.266800982},{"id":665,"stateId":"15","stateName":"México","name":"Amecameca","lat":19.124949273,"lon":-98.716473629},{"id":666,"stateId":"15","stateName":"México","name":"Apaxco","lat":19.984507393,"lon":-99.147900085},{"id":667,"stateId":"15","stateName":"México","name":"Atenco","lat":19.545934732,"lon":-98.960946316},{"id":668,"stateId":"15","stateName":"México","name":"Atizapán","lat":19.175537398,"lon":-99.500005547},{"id":669,"stateId":"15","stateName":"México","name":"Atizapán de Zaragoza","lat":19.564729203,"lon":-99.27408553},{"id":670,"stateId":"15","stateName":"México","name":"Atlacomulco","lat":19.809957751,"lon":-99.846006377},{"id":671,"stateId":"15","stateName":"México","name":"Atlautla","lat":19.031117198,"lon":-98.717097646},{"id":672,"stateId":"15","stateName":"México","name":"Axapusco","lat":19.763043659,"lon":-98.721326594},{"id":673,"stateId":"15","stateName":"México","name":"Ayapango","lat":19.12428967,"lon":-98.81635107},{"id":674,"stateId":"15","stateName":"México","name":"Calimaya","lat":19.165542033,"lon":-99.643254738},{"id":675,"stateId":"15","stateName":"México","name":"Capulhuac","lat":19.208702568,"lon":-99.459739232},{"id":681,"stateId":"15","stateName":"México","name":"Chalco","lat":19.253605143,"lon":-98.831698221},{"id":682,"stateId":"15","stateName":"México","name":"Chapa de Mota","lat":19.825291877,"lon":-99.550737807},{"id":683,"stateId":"15","stateName":"México","name":"Chapultepec","lat":19.206515732,"lon":-99.550433036},{"id":684,"stateId":"15","stateName":"México","name":"Chiautla","lat":19.57303967,"lon":-98.883424735},{"id":685,"stateId":"15","stateName":"México","name":"Chicoloapan","lat":19.40155053,"lon":-98.884694398},{"id":686,"stateId":"15","stateName":"México","name":"Chiconcuac","lat":19.560157515,"lon":-98.897638439},{"id":687,"stateId":"15","stateName":"México","name":"Chimalhuacán","lat":19.422351998,"lon":-98.955214839},{"id":676,"stateId":"15","stateName":"México","name":"Coacalco de Berriozábal","lat":19.626315184,"lon":-99.10239834},{"id":677,"stateId":"15","stateName":"México","name":"Coatepec Harinas","lat":18.946328592,"lon":-99.798257586},{"id":678,"stateId":"15","stateName":"México","name":"Cocotitlán","lat":19.22602696,"lon":-98.858892057},{"id":679,"stateId":"15","stateName":"México","name":"Coyotepec","lat":19.789461052,"lon":-99.222207846},{"id":680,"stateId":"15","stateName":"México","name":"Cuautitlán","lat":19.704452286,"lon":-99.156844401},{"id":777,"stateId":"15","stateName":"México","name":"Cuautitlán Izcalli","lat":19.654698733,"lon":-99.225259524},{"id":688,"stateId":"15","stateName":"México","name":"Donato Guerra","lat":19.316442298,"lon":-100.184841149},{"id":689,"stateId":"15","stateName":"México","name":"Ecatepec de Morelos","lat":19.573478848,"lon":-99.042343252},{"id":690,"stateId":"15","stateName":"México","name":"Ecatzingo","lat":18.968023492,"lon":-98.736645931},{"id":720,"stateId":"15","stateName":"México","name":"El Oro","lat":19.798534929,"lon":-100.075438274},{"id":691,"stateId":"15","stateName":"México","name":"Huehuetoca","lat":19.822624916,"lon":-99.255037478},{"id":692,"stateId":"15","stateName":"México","name":"Hueypoxtla","lat":19.952414198,"lon":-99.028009356},{"id":693,"stateId":"15","stateName":"México","name":"Huixquilucan","lat":19.383099467,"lon":-99.339527311},{"id":694,"stateId":"15","stateName":"México","name":"Isidro Fabela","lat":19.554240695,"lon":-99.440376113},{"id":695,"stateId":"15","stateName":"México","name":"Ixtapaluca","lat":19.342799532,"lon":-98.779035119},{"id":696,"stateId":"15","stateName":"México","name":"Ixtapan de la Sal","lat":18.850698053,"lon":-99.69084498},{"id":697,"stateId":"15","stateName":"México","name":"Ixtapan del Oro","lat":19.257427529,"lon":-100.277849221},{"id":698,"stateId":"15","stateName":"México","name":"Ixtlahuaca","lat":19.589828923,"lon":-99.806945251},{"id":700,"stateId":"15","stateName":"México","name":"Jaltenco","lat":19.738720343,"lon":-99.088923383},{"id":701,"stateId":"15","stateName":"México","name":"Jilotepec","lat":20.018360503,"lon":-99.596465173},{"id":702,"stateId":"15","stateName":"México","name":"Jilotzingo","lat":19.506043177,"lon":-99.390433936},{"id":703,"stateId":"15","stateName":"México","name":"Jiquipilco","lat":19.586038473,"lon":-99.641605463},{"id":704,"stateId":"15","stateName":"México","name":"Jocotitlán","lat":19.717336686,"lon":-99.823480967},{"id":705,"stateId":"15","stateName":"México","name":"Joquicingo","lat":19.067564637,"lon":-99.514481281},{"id":706,"stateId":"15","stateName":"México","name":"Juchitepec","lat":19.09359406,"lon":-98.90408479},{"id":726,"stateId":"15","stateName":"México","name":"La Paz","lat":19.360800287,"lon":-98.947591761},{"id":707,"stateId":"15","stateName":"México","name":"Lerma","lat":19.344421228,"lon":-99.47617853},{"id":779,"stateId":"15","stateName":"México","name":"Luvianos","lat":18.940821014,"lon":-100.406481901},{"id":708,"stateId":"15","stateName":"México","name":"Malinalco","lat":18.881959937,"lon":-99.485649775},{"id":709,"stateId":"15","stateName":"México","name":"Melchor Ocampo","lat":19.709596391,"lon":-99.133507139},{"id":710,"stateId":"15","stateName":"México","name":"Metepec","lat":19.247355158,"lon":-99.588354431},{"id":711,"stateId":"15","stateName":"México","name":"Mexicaltzingo","lat":19.21125206,"lon":-99.584027156},{"id":712,"stateId":"15","stateName":"México","name":"Morelos","lat":19.743438617,"lon":-99.641769663},{"id":713,"stateId":"15","stateName":"México","name":"Naucalpan de Juárez","lat":19.471257049,"lon":-99.29260807},{"id":715,"stateId":"15","stateName":"México","name":"Nextlalpan","lat":19.72862825,"lon":-99.075111878},{"id":714,"stateId":"15","stateName":"México","name":"Nezahualcóyotl","lat":19.425159217,"lon":-99.024385167},{"id":716,"stateId":"15","stateName":"México","name":"Nicolás Romero","lat":19.624973166,"lon":-99.391735393},{"id":717,"stateId":"15","stateName":"México","name":"Nopaltepec","lat":19.812235822,"lon":-98.717013277},{"id":718,"stateId":"15","stateName":"México","name":"Ocoyoacac","lat":19.259441872,"lon":-99.406589134},{"id":719,"stateId":"15","stateName":"México","name":"Ocuilán","lat":19.009233484,"lon":-99.396414929},{"id":721,"stateId":"15","stateName":"México","name":"Otumba","lat":19.656093358,"lon":-98.73843473},{"id":722,"stateId":"15","stateName":"México","name":"Otzoloapan","lat":19.108027583,"lon":-100.318945482},{"id":723,"stateId":"15","stateName":"México","name":"Otzolotepec","lat":19.450608115,"lon":-99.527314501},{"id":724,"stateId":"15","stateName":"México","name":"Ozumba","lat":19.021819473,"lon":-98.809671355},{"id":725,"stateId":"15","stateName":"México","name":"Papalotla","lat":19.559878661,"lon":-98.857887165},{"id":727,"stateId":"15","stateName":"México","name":"Polotitlán","lat":20.224046045,"lon":-99.831649962},{"id":728,"stateId":"15","stateName":"México","name":"Rayón","lat":19.138880709,"lon":-99.567063038},{"id":729,"stateId":"15","stateName":"México","name":"San Antonio la Isla","lat":19.168878562,"lon":-99.551286092},{"id":730,"stateId":"15","stateName":"México","name":"San Felipe del Progreso","lat":19.653215076,"lon":-99.982497175},{"id":780,"stateId":"15","stateName":"México","name":"San José del Rincón","lat":19.619599493,"lon":-100.145329637},{"id":731,"stateId":"15","stateName":"México","name":"San Martín de las Pirámides","lat":19.719772734,"lon":-98.832200484},{"id":732,"stateId":"15","stateName":"México","name":"San Mateo Atenco","lat":19.265461544,"lon":-99.539761853},{"id":733,"stateId":"15","stateName":"México","name":"San Simón de Guerrero","lat":18.980055196,"lon":-100.0368772},{"id":734,"stateId":"15","stateName":"México","name":"Santo Tomás","lat":19.179686865,"lon":-100.299814597},{"id":735,"stateId":"15","stateName":"México","name":"Soyaniquilpan de Juárez","lat":20.051773507,"lon":-99.513860922},{"id":736,"stateId":"15","stateName":"México","name":"Sultepec","lat":18.734624575,"lon":-99.989204621},{"id":737,"stateId":"15","stateName":"México","name":"Tecámac","lat":19.707116253,"lon":-98.986028481},{"id":738,"stateId":"15","stateName":"México","name":"Tejupilco","lat":18.873742769,"lon":-100.213235217},{"id":739,"stateId":"15","stateName":"México","name":"Temamatla","lat":19.188932293,"lon":-98.883774509},{"id":740,"stateId":"15","stateName":"México","name":"Temascalapa","lat":19.819125717,"lon":-98.881025765},{"id":741,"stateId":"15","stateName":"México","name":"Temascalcingo","lat":19.92118846,"lon":-100.037080961},{"id":742,"stateId":"15","stateName":"México","name":"Temascaltepec","lat":19.081364592,"lon":-99.99659115},{"id":743,"stateId":"15","stateName":"México","name":"Temoaya","lat":19.48497163,"lon":-99.602457433},{"id":744,"stateId":"15","stateName":"México","name":"Tenancingo","lat":18.96713929,"lon":-99.569207271},{"id":745,"stateId":"15","stateName":"México","name":"Tenango del Aire","lat":19.151637405,"lon":-98.870148802},{"id":746,"stateId":"15","stateName":"México","name":"Tenango del Valle","lat":19.081810984,"lon":-99.6293986},{"id":747,"stateId":"15","stateName":"México","name":"Teoloyucan","lat":19.758502261,"lon":-99.181268335},{"id":748,"stateId":"15","stateName":"México","name":"Teotihuacán","lat":19.686314926,"lon":-98.870664435},{"id":749,"stateId":"15","stateName":"México","name":"Tepetlaoxtoc","lat":19.569428822,"lon":-98.765387093},{"id":750,"stateId":"15","stateName":"México","name":"Tepetlixpa","lat":19.009950783,"lon":-98.841277626},{"id":751,"stateId":"15","stateName":"México","name":"Tepotzotlán","lat":19.723396178,"lon":-99.310892895},{"id":752,"stateId":"15","stateName":"México","name":"Tequixquiac","lat":19.904655515,"lon":-99.149599883},{"id":753,"stateId":"15","stateName":"México","name":"Texcaltitlán","lat":18.939565256,"lon":-99.939298099},{"id":754,"stateId":"15","stateName":"México","name":"Texcalyacac","lat":19.129646374,"lon":-99.506425071},{"id":755,"stateId":"15","stateName":"México","name":"Texcoco","lat":19.471586336,"lon":-98.827323552},{"id":756,"stateId":"15","stateName":"México","name":"Tezoyuca","lat":19.596875838,"lon":-98.930975435},{"id":757,"stateId":"15","stateName":"México","name":"Tianguistenco","lat":19.162315025,"lon":-99.432168377},{"id":758,"stateId":"15","stateName":"México","name":"Timilpan","lat":19.896341905,"lon":-99.718043318},{"id":759,"stateId":"15","stateName":"México","name":"Tlalmanalco","lat":19.208903317,"lon":-98.731969937},{"id":760,"stateId":"15","stateName":"México","name":"Tlalnepantla de Baz","lat":19.542734785,"lon":-99.170086515},{"id":761,"stateId":"15","stateName":"México","name":"Tlatlaya","lat":18.544483257,"lon":-100.257084044},{"id":762,"stateId":"15","stateName":"México","name":"Toluca","lat":19.297035169,"lon":-99.667293708},{"id":781,"stateId":"15","stateName":"México","name":"Tonanitla","lat":19.681839306,"lon":-99.058371406},{"id":763,"stateId":"15","stateName":"México","name":"Tonatico","lat":18.780897627,"lon":-99.637556662},{"id":764,"stateId":"15","stateName":"México","name":"Tultepec","lat":19.678357391,"lon":-99.121112369},{"id":765,"stateId":"15","stateName":"México","name":"Tultitlán","lat":19.625166854,"lon":-99.14596641},{"id":766,"stateId":"15","stateName":"México","name":"Valle de Bravo","lat":19.177768289,"lon":-100.121951633},{"id":778,"stateId":"15","stateName":"México","name":"Valle de Chalco Solidaridad","lat":19.276336868,"lon":-98.948314563},{"id":767,"stateId":"15","stateName":"México","name":"Villa de Allende","lat":19.387242598,"lon":-100.137561966},{"id":768,"stateId":"15","stateName":"México","name":"Villa del Carbón","lat":19.721061697,"lon":-99.478430247},{"id":769,"stateId":"15","stateName":"México","name":"Villa Guerrero","lat":18.974298815,"lon":-99.68773038},{"id":770,"stateId":"15","stateName":"México","name":"Villa Victoria","lat":19.442749062,"lon":-99.992124111},{"id":699,"stateId":"15","stateName":"México","name":"Xalatlaco","lat":19.165244274,"lon":-99.3592613},{"id":771,"stateId":"15","stateName":"México","name":"Xonacatlán","lat":19.437002385,"lon":-99.467522429},{"id":772,"stateId":"15","stateName":"México","name":"Zacazonapan","lat":19.060836016,"lon":-100.256096888},{"id":773,"stateId":"15","stateName":"México","name":"Zacualpan","lat":18.715822352,"lon":-99.812805796},{"id":774,"stateId":"15","stateName":"México","name":"Zinacantepec","lat":19.215407139,"lon":-99.797694959},{"id":775,"stateId":"15","stateName":"México","name":"Zumpahuacán","lat":18.800116413,"lon":-99.554090847},{"id":776,"stateId":"15","stateName":"México","name":"Zumpango","lat":19.809131415,"lon":-99.07180185},{"id":782,"stateId":"16","stateName":"Michoacán de Ocampo","name":"Acuitzio","lat":19.467016421,"lon":-101.337188777},{"id":783,"stateId":"16","stateName":"Michoacán de Ocampo","name":"Aguililla","lat":18.777450151,"lon":-102.759830127},{"id":784,"stateId":"16","stateName":"Michoacán de Ocampo","name":"Álvaro Obregón","lat":19.873399841,"lon":-101.019818108},{"id":785,"stateId":"16","stateName":"Michoacán de Ocampo","name":"Angamacutiro","lat":20.13749558,"lon":-101.727456913},{"id":786,"stateId":"16","stateName":"Michoacán de Ocampo","name":"Angangueo","lat":19.631812813,"lon":-100.300143257},{"id":787,"stateId":"16","stateName":"Michoacán de Ocampo","name":"Apatzingán","lat":18.936812055,"lon":-102.422690591},{"id":788,"stateId":"16","stateName":"Michoacán de Ocampo","name":"Aporo","lat":19.663579097,"lon":-100.392995485},{"id":789,"stateId":"16","stateName":"Michoacán de Ocampo","name":"Aquila","lat":18.375509909,"lon":-103.237369439},{"id":790,"stateId":"16","stateName":"Michoacán de Ocampo","name":"Arío","lat":19.155069124,"lon":-101.705460064},{"id":791,"stateId":"16","stateName":"Michoacán de Ocampo","name":"Arteaga","lat":18.363694161,"lon":-102.264802797},{"id":792,"stateId":"16","stateName":"Michoacán de Ocampo","name":"Briseñas","lat":20.236978244,"lon":-102.589232532},{"id":793,"stateId":"16","stateName":"Michoacán de Ocampo","name":"Buenavista","lat":19.199097205,"lon":-102.586692994},{"id":794,"stateId":"16","stateName":"Michoacán de Ocampo","name":"Carácuaro","lat":18.981360924,"lon":-101.032554444},{"id":802,"stateId":"16","stateName":"Michoacán de Ocampo","name":"Charapan","lat":19.692040786,"lon":-102.226200439},{"id":803,"stateId":"16","stateName":"Michoacán de Ocampo","name":"Charo","lat":19.668075241,"lon":-101.012551206},{"id":804,"stateId":"16","stateName":"Michoacán de Ocampo","name":"Chavinda","lat":20.043407581,"lon":-102.445100564},{"id":805,"stateId":"16","stateName":"Michoacán de Ocampo","name":"Cherán","lat":19.73322028,"lon":-101.990435519},{"id":806,"stateId":"16","stateName":"Michoacán de Ocampo","name":"Chilchota","lat":19.812458701,"lon":-102.099869351},{"id":807,"stateId":"16","stateName":"Michoacán de Ocampo","name":"Chinicuila","lat":18.764001913,"lon":-103.404994143},{"id":808,"stateId":"16","stateName":"Michoacán de Ocampo","name":"Chucándiro","lat":19.895021121,"lon":-101.364282607},{"id":809,"stateId":"16","stateName":"Michoacán de Ocampo","name":"Churintzio","lat":20.129282783,"lon":-102.077433248},{"id":810,"stateId":"16","stateName":"Michoacán de Ocampo","name":"Churumuco","lat":18.684869559,"lon":-101.621217663},{"id":795,"stateId":"16","stateName":"Michoacán de Ocampo","name":"Coahuayana","lat":18.746241775,"lon":-103.613525134},{"id":796,"stateId":"16","stateName":"Michoacán de Ocampo","name":"Coalcomán de Vázquez Pallares","lat":18.681547623,"lon":-103.08372012},{"id":797,"stateId":"16","stateName":"Michoacán de Ocampo","name":"Coeneo","lat":19.795198418,"lon":-101.626046042},{"id":855,"stateId":"16","stateName":"Michoacán de Ocampo","name":"Cojumatlán de Régules","lat":20.112386254,"lon":-102.884242118},{"id":798,"stateId":"16","stateName":"Michoacán de Ocampo","name":"Contepec","lat":19.958766993,"lon":-100.206738028},{"id":799,"stateId":"16","stateName":"Michoacán de Ocampo","name":"Copándaro","lat":19.917032003,"lon":-101.226561267},{"id":800,"stateId":"16","stateName":"Michoacán de Ocampo","name":"Cotija","lat":19.757406645,"lon":-102.6981816},{"id":801,"stateId":"16","stateName":"Michoacán de Ocampo","name":"Cuitzeo","lat":19.97965619,"lon":-101.111826425},{"id":811,"stateId":"16","stateName":"Michoacán de Ocampo","name":"Ecuandureo","lat":20.155761893,"lon":-102.242519387},{"id":812,"stateId":"16","stateName":"Michoacán de Ocampo","name":"Epitacio Huerta","lat":20.146901822,"lon":-100.287142917},{"id":813,"stateId":"16","stateName":"Michoacán de Ocampo","name":"Erongarícuaro","lat":19.618716479,"lon":-101.724304388},{"id":814,"stateId":"16","stateName":"Michoacán de Ocampo","name":"Gabriel Zamora","lat":19.170731996,"lon":-102.022570422},{"id":815,"stateId":"16","stateName":"Michoacán de Ocampo","name":"Hidalgo","lat":19.612023125,"lon":-100.675875231},{"id":817,"stateId":"16","stateName":"Michoacán de Ocampo","name":"Huandacareo","lat":19.996162765,"lon":-101.277825855},{"id":818,"stateId":"16","stateName":"Michoacán de Ocampo","name":"Huaniqueo","lat":19.893563075,"lon":-101.495555997},{"id":819,"stateId":"16","stateName":"Michoacán de Ocampo","name":"Huetamo","lat":18.653650508,"lon":-101.103973998},{"id":820,"stateId":"16","stateName":"Michoacán de Ocampo","name":"Huiramba","lat":19.523966039,"lon":-101.453313271},{"id":821,"stateId":"16","stateName":"Michoacán de Ocampo","name":"Indaparapeo","lat":19.76470539,"lon":-100.940732485},{"id":822,"stateId":"16","stateName":"Michoacán de Ocampo","name":"Irimbo","lat":19.717312301,"lon":-100.466236814},{"id":823,"stateId":"16","stateName":"Michoacán de Ocampo","name":"Ixtlán","lat":20.152017093,"lon":-102.404052047},{"id":824,"stateId":"16","stateName":"Michoacán de Ocampo","name":"Jacona","lat":19.934049631,"lon":-102.314288026},{"id":825,"stateId":"16","stateName":"Michoacán de Ocampo","name":"Jiménez","lat":19.926874145,"lon":-101.702408236},{"id":826,"stateId":"16","stateName":"Michoacán de Ocampo","name":"Jiquilpan","lat":19.976687583,"lon":-102.751257582},{"id":894,"stateId":"16","stateName":"Michoacán de Ocampo","name":"José Sixto Verduzco","lat":20.255668378,"lon":-101.566555447},{"id":827,"stateId":"16","stateName":"Michoacán de Ocampo","name":"Juárez","lat":19.293127627,"lon":-100.460215299},{"id":828,"stateId":"16","stateName":"Michoacán de Ocampo","name":"Jungapeo","lat":19.433230179,"lon":-100.518202828},{"id":816,"stateId":"16","stateName":"Michoacán de Ocampo","name":"La Huacana","lat":18.842643429,"lon":-101.917989356},{"id":850,"stateId":"16","stateName":"Michoacán de Ocampo","name":"La Piedad","lat":20.305451973,"lon":-102.071863738},{"id":829,"stateId":"16","stateName":"Michoacán de Ocampo","name":"Lagunillas","lat":19.586505576,"lon":-101.417367066},{"id":833,"stateId":"16","stateName":"Michoacán de Ocampo","name":"Lázaro Cárdenas","lat":18.087066045,"lon":-102.376410089},{"id":856,"stateId":"16","stateName":"Michoacán de Ocampo","name":"Los Reyes","lat":19.651355886,"lon":-102.394099609},{"id":830,"stateId":"16","stateName":"Michoacán de Ocampo","name":"Madero","lat":19.342151874,"lon":-101.168788065},{"id":831,"stateId":"16","stateName":"Michoacán de Ocampo","name":"Maravatio","lat":19.889370639,"lon":-100.426848594},{"id":832,"stateId":"16","stateName":"Michoacán de Ocampo","name":"Marcos Castellanos","lat":20.044163537,"lon":-102.966460413},{"id":834,"stateId":"16","stateName":"Michoacán de Ocampo","name":"Morelia","lat":19.66623309,"lon":-101.279441597},{"id":835,"stateId":"16","stateName":"Michoacán de Ocampo","name":"Morelos","lat":19.990772436,"lon":-101.440814452},{"id":836,"stateId":"16","stateName":"Michoacán de Ocampo","name":"Múgica","lat":18.97040265,"lon":-102.123401295},{"id":837,"stateId":"16","stateName":"Michoacán de Ocampo","name":"Nahuatzén","lat":19.643964685,"lon":-101.878343087},{"id":838,"stateId":"16","stateName":"Michoacán de Ocampo","name":"Nocupétaro","lat":19.09281703,"lon":-101.213317656},{"id":839,"stateId":"16","stateName":"Michoacán de Ocampo","name":"Nuevo Parangaricutiro","lat":19.403901274,"lon":-102.189463291},{"id":840,"stateId":"16","stateName":"Michoacán de Ocampo","name":"Nuevo Urecho","lat":19.158467876,"lon":-101.862537689},{"id":841,"stateId":"16","stateName":"Michoacán de Ocampo","name":"Numarán","lat":20.251649458,"lon":-101.959675996},{"id":842,"stateId":"16","stateName":"Michoacán de Ocampo","name":"Ocampo","lat":19.57913739,"lon":-100.333614944},{"id":843,"stateId":"16","stateName":"Michoacán de Ocampo","name":"Pajacuarán","lat":20.144749311,"lon":-102.524674442},{"id":844,"stateId":"16","stateName":"Michoacán de Ocampo","name":"Panindícuaro","lat":20.000102043,"lon":-101.780779006},{"id":846,"stateId":"16","stateName":"Michoacán de Ocampo","name":"Paracho","lat":19.651655316,"lon":-102.068976027},{"id":845,"stateId":"16","stateName":"Michoacán de Ocampo","name":"Parácuaro","lat":19.060119105,"lon":-102.211882297},{"id":847,"stateId":"16","stateName":"Michoacán de Ocampo","name":"Pátzcuaro","lat":19.494575508,"lon":-101.595776596},{"id":848,"stateId":"16","stateName":"Michoacán de Ocampo","name":"Penjamillo","lat":20.102738563,"lon":-101.895656846},{"id":849,"stateId":"16","stateName":"Michoacán de Ocampo","name":"Peribán","lat":19.493241038,"lon":-102.453203581},{"id":851,"stateId":"16","stateName":"Michoacán de Ocampo","name":"Purépero","lat":19.91080444,"lon":-101.991083215},{"id":852,"stateId":"16","stateName":"Michoacán de Ocampo","name":"Puruándiro","lat":20.115522869,"lon":-101.527196417},{"id":853,"stateId":"16","stateName":"Michoacán de Ocampo","name":"Queréndaro","lat":19.725543313,"lon":-100.845646336},{"id":854,"stateId":"16","stateName":"Michoacán de Ocampo","name":"Quiroga","lat":19.694940516,"lon":-101.537433834},{"id":857,"stateId":"16","stateName":"Michoacán de Ocampo","name":"Sahuayo","lat":20.056723728,"lon":-102.766062822},{"id":860,"stateId":"16","stateName":"Michoacán de Ocampo","name":"Salvador Escalante","lat":19.381111222,"lon":-101.686353348},{"id":858,"stateId":"16","stateName":"Michoacán de Ocampo","name":"San Lucas","lat":18.567494384,"lon":-100.762421326},{"id":859,"stateId":"16","stateName":"Michoacán de Ocampo","name":"Santa Ana Maya","lat":20.038748395,"lon":-101.039839055},{"id":861,"stateId":"16","stateName":"Michoacán de Ocampo","name":"Senguío","lat":19.745029646,"lon":-100.339320554},{"id":862,"stateId":"16","stateName":"Michoacán de Ocampo","name":"Susupuato","lat":19.191777191,"lon":-100.406346963},{"id":863,"stateId":"16","stateName":"Michoacán de Ocampo","name":"Tacámbaro","lat":19.25392639,"lon":-101.450797081},{"id":864,"stateId":"16","stateName":"Michoacán de Ocampo","name":"Tancítaro","lat":19.332053875,"lon":-102.348066896},{"id":865,"stateId":"16","stateName":"Michoacán de Ocampo","name":"Tangamandapio","lat":19.891436424,"lon":-102.451768284},{"id":866,"stateId":"16","stateName":"Michoacán de Ocampo","name":"Tangancícuaro","lat":19.870558103,"lon":-102.247326722},{"id":867,"stateId":"16","stateName":"Michoacán de Ocampo","name":"Tanhuato","lat":20.259181002,"lon":-102.340075629},{"id":868,"stateId":"16","stateName":"Michoacán de Ocampo","name":"Taretan","lat":19.32816984,"lon":-101.893602689},{"id":869,"stateId":"16","stateName":"Michoacán de Ocampo","name":"Tarímbaro","lat":19.813439062,"lon":-101.150119646},{"id":870,"stateId":"16","stateName":"Michoacán de Ocampo","name":"Tepalcatepec","lat":19.071104224,"lon":-102.859881784},{"id":871,"stateId":"16","stateName":"Michoacán de Ocampo","name":"Tingambato","lat":19.513209105,"lon":-101.849258651},{"id":872,"stateId":"16","stateName":"Michoacán de Ocampo","name":"Tinguindín","lat":19.786079527,"lon":-102.498676924},{"id":873,"stateId":"16","stateName":"Michoacán de Ocampo","name":"Tiquicheo de Nicolás Romero","lat":19.051606971,"lon":-100.785025966},{"id":874,"stateId":"16","stateName":"Michoacán de Ocampo","name":"Tlalpujahua","lat":19.781768027,"lon":-100.204173779},{"id":875,"stateId":"16","stateName":"Michoacán de Ocampo","name":"Tlazazalca","lat":20.006268606,"lon":-102.061981831},{"id":876,"stateId":"16","stateName":"Michoacán de Ocampo","name":"Tocumbo","lat":19.643724495,"lon":-102.592843898},{"id":877,"stateId":"16","stateName":"Michoacán de Ocampo","name":"Tumbiscatío","lat":18.550963086,"lon":-102.502581743},{"id":878,"stateId":"16","stateName":"Michoacán de Ocampo","name":"Turicato","lat":18.931952603,"lon":-101.420070056},{"id":879,"stateId":"16","stateName":"Michoacán de Ocampo","name":"Tuxpan","lat":19.566658476,"lon":-100.486107438},{"id":880,"stateId":"16","stateName":"Michoacán de Ocampo","name":"Tuzantla","lat":19.22056111,"lon":-100.618098528},{"id":881,"stateId":"16","stateName":"Michoacán de Ocampo","name":"Tzintzuntzán","lat":19.609700723,"lon":-101.558046449},{"id":882,"stateId":"16","stateName":"Michoacán de Ocampo","name":"Tzitzio","lat":19.430525774,"lon":-100.91192547},{"id":883,"stateId":"16","stateName":"Michoacán de Ocampo","name":"Uruapan","lat":19.456813159,"lon":-102.104359716},{"id":884,"stateId":"16","stateName":"Michoacán de Ocampo","name":"Venustiano Carranza","lat":20.142640929,"lon":-102.668814435},{"id":885,"stateId":"16","stateName":"Michoacán de Ocampo","name":"Villamar","lat":19.993177029,"lon":-102.584744769},{"id":886,"stateId":"16","stateName":"Michoacán de Ocampo","name":"Vista Hermosa","lat":20.264628494,"lon":-102.469675641},{"id":887,"stateId":"16","stateName":"Michoacán de Ocampo","name":"Yurécuaro","lat":20.298728671,"lon":-102.217995397},{"id":888,"stateId":"16","stateName":"Michoacán de Ocampo","name":"Zacapu","lat":19.823593908,"lon":-101.827535333},{"id":889,"stateId":"16","stateName":"Michoacán de Ocampo","name":"Zamora","lat":20.03254656,"lon":-102.261789663},{"id":890,"stateId":"16","stateName":"Michoacán de Ocampo","name":"Zináparo","lat":20.183017814,"lon":-102.012476603},{"id":891,"stateId":"16","stateName":"Michoacán de Ocampo","name":"Zinapécuaro","lat":19.870552135,"lon":-100.767401986},{"id":892,"stateId":"16","stateName":"Michoacán de Ocampo","name":"Ziracuaretiro","lat":19.427857241,"lon":-101.906855637},{"id":893,"stateId":"16","stateName":"Michoacán de Ocampo","name":"Zitácuaro","lat":19.437604328,"lon":-100.337029377},{"id":895,"stateId":"17","stateName":"Morelos","name":"Amacuzac","lat":18.586685566,"lon":-99.385169808},{"id":896,"stateId":"17","stateName":"Morelos","name":"Atlatlahucan","lat":18.936019169,"lon":-98.894639008},{"id":897,"stateId":"17","stateName":"Morelos","name":"Axochiapan","lat":18.523772668,"lon":-98.752746514},{"id":898,"stateId":"17","stateName":"Morelos","name":"Ayala","lat":18.71491667,"lon":-98.977697796},{"id":75552,"stateId":"17","stateName":"Morelos","name":"Coatetelco","lat":18.729868,"lon":-99.325544},{"id":899,"stateId":"17","stateName":"Morelos","name":"Coatlán del Río","lat":18.731535698,"lon":-99.444982303},{"id":900,"stateId":"17","stateName":"Morelos","name":"Cuautla","lat":18.831600508,"lon":-98.956509585},{"id":901,"stateId":"17","stateName":"Morelos","name":"Cuernavaca","lat":18.938850172,"lon":-99.262781192},{"id":902,"stateId":"17","stateName":"Morelos","name":"Emiliano Zapata","lat":18.813267822,"lon":-99.181032223},{"id":75556,"stateId":"17","stateName":"Morelos","name":"Hueyapan"},{"id":903,"stateId":"17","stateName":"Morelos","name":"Huitzilac","lat":19.057368272,"lon":-99.235928007},{"id":904,"stateId":"17","stateName":"Morelos","name":"Jantetelco","lat":18.676312382,"lon":-98.753521377},{"id":905,"stateId":"17","stateName":"Morelos","name":"Jiutepec","lat":18.885421959,"lon":-99.166772158},{"id":906,"stateId":"17","stateName":"Morelos","name":"Jojutla","lat":18.587396271,"lon":-99.221030819},{"id":907,"stateId":"17","stateName":"Morelos","name":"Jonacatepec de Leandro Valle","lat":18.672940609,"lon":-98.811638342},{"id":908,"stateId":"17","stateName":"Morelos","name":"Mazatepec","lat":18.685939346,"lon":-99.364029714},{"id":909,"stateId":"17","stateName":"Morelos","name":"Miacatlán","lat":18.803441968,"lon":-99.355069752},{"id":910,"stateId":"17","stateName":"Morelos","name":"Ocuituco","lat":18.879384322,"lon":-98.781140011},{"id":911,"stateId":"17","stateName":"Morelos","name":"Puente de Ixtla","lat":18.576419193,"lon":-99.283778227},{"id":912,"stateId":"17","stateName":"Morelos","name":"Temixco","lat":18.84148237,"lon":-99.27202324},{"id":927,"stateId":"17","stateName":"Morelos","name":"Temoac","lat":18.758889636,"lon":-98.788210735},{"id":913,"stateId":"17","stateName":"Morelos","name":"Tepalcingo","lat":18.574620886,"lon":-98.894255888},{"id":914,"stateId":"17","stateName":"Morelos","name":"Tepoztlán","lat":18.98069556,"lon":-99.104054224},{"id":915,"stateId":"17","stateName":"Morelos","name":"Tetecala","lat":18.689693533,"lon":-99.413237768},{"id":916,"stateId":"17","stateName":"Morelos","name":"Tetela del Volcán","lat":18.907386663,"lon":-98.704047565},{"id":917,"stateId":"17","stateName":"Morelos","name":"Tlalnepantla","lat":19.038980453,"lon":-98.990243728},{"id":918,"stateId":"17","stateName":"Morelos","name":"Tlaltizapán de Zapata","lat":18.709059098,"lon":-99.10678646},{"id":919,"stateId":"17","stateName":"Morelos","name":"Tlaquiltenango","lat":18.498767141,"lon":-99.073949569},{"id":920,"stateId":"17","stateName":"Morelos","name":"Tlayacapan","lat":18.954788128,"lon":-98.975649682},{"id":921,"stateId":"17","stateName":"Morelos","name":"Totolapan","lat":19.000588136,"lon":-98.9180644},{"id":922,"stateId":"17","stateName":"Morelos","name":"Xochitepec","lat":18.760476145,"lon":-99.235464603},{"id":75547,"stateId":"17","stateName":"Morelos","name":"Xoxocotla","lat":18.685096,"lon":-99.246878},{"id":923,"stateId":"17","stateName":"Morelos","name":"Yautepec","lat":18.87306444,"lon":-99.049244397},{"id":924,"stateId":"17","stateName":"Morelos","name":"Yecapixtla","lat":18.851785632,"lon":-98.85915226},{"id":925,"stateId":"17","stateName":"Morelos","name":"Zacatepec","lat":18.655734741,"lon":-99.205305798},{"id":926,"stateId":"17","stateName":"Morelos","name":"Zacualpan de Amilpas","lat":18.805094366,"lon":-98.757346096},{"id":928,"stateId":"18","stateName":"Nayarit","name":"Acaponeta","lat":22.464760833,"lon":-105.252003704},{"id":929,"stateId":"18","stateName":"Nayarit","name":"Ahuacatlán","lat":21.038417833,"lon":-104.577170884},{"id":930,"stateId":"18","stateName":"Nayarit","name":"Amatlán de Cañas","lat":20.84973168,"lon":-104.399710784},{"id":947,"stateId":"18","stateName":"Nayarit","name":"Bahía de Banderas","lat":20.849097013,"lon":-105.268832461},{"id":931,"stateId":"18","stateName":"Nayarit","name":"Compostela","lat":21.132311628,"lon":-105.055000688},{"id":936,"stateId":"18","stateName":"Nayarit","name":"Del Nayar","lat":22.13538364,"lon":-104.660901554},{"id":932,"stateId":"18","stateName":"Nayarit","name":"Huajícori","lat":22.786557114,"lon":-105.243460098},{"id":933,"stateId":"18","stateName":"Nayarit","name":"Ixtlán del Río","lat":21.034115314,"lon":-104.305701319},{"id":934,"stateId":"18","stateName":"Nayarit","name":"Jala","lat":21.182471442,"lon":-104.398470306},{"id":946,"stateId":"18","stateName":"Nayarit","name":"La Yesca","lat":21.543359492,"lon":-104.156716115},{"id":937,"stateId":"18","stateName":"Nayarit","name":"Rosamorada","lat":22.117328717,"lon":-105.218310971},{"id":938,"stateId":"18","stateName":"Nayarit","name":"Ruiz","lat":21.994427763,"lon":-104.958772413},{"id":939,"stateId":"18","stateName":"Nayarit","name":"San Blas","lat":21.568189672,"lon":-105.212348646},{"id":940,"stateId":"18","stateName":"Nayarit","name":"San Pedro Lagunillas","lat":21.162552379,"lon":-104.743052162},{"id":941,"stateId":"18","stateName":"Nayarit","name":"Santa María del Oro","lat":21.360949182,"lon":-104.588865085},{"id":942,"stateId":"18","stateName":"Nayarit","name":"Santiago Ixcuintla","lat":21.825918334,"lon":-105.472932669},{"id":943,"stateId":"18","stateName":"Nayarit","name":"Tecuala","lat":22.33860397,"lon":-105.518558534},{"id":944,"stateId":"18","stateName":"Nayarit","name":"Tepic","lat":21.619940844,"lon":-104.850237585},{"id":945,"stateId":"18","stateName":"Nayarit","name":"Tuxpan","lat":21.941518426,"lon":-105.341169811},{"id":935,"stateId":"18","stateName":"Nayarit","name":"Xalisco","lat":21.390534874,"lon":-104.953761782},{"id":948,"stateId":"19","stateName":"Nuevo León","name":"Abasolo","lat":25.941287013,"lon":-100.406485083},{"id":949,"stateId":"19","stateName":"Nuevo León","name":"Agualeguas","lat":26.297566714,"lon":-99.703954824},{"id":951,"stateId":"19","stateName":"Nuevo León","name":"Allende","lat":25.300695918,"lon":-100.031847483},{"id":952,"stateId":"19","stateName":"Nuevo León","name":"Anáhuac","lat":27.339300687,"lon":-100.023192943},{"id":953,"stateId":"19","stateName":"Nuevo León","name":"Apodaca","lat":25.788483803,"lon":-100.179961319},{"id":954,"stateId":"19","stateName":"Nuevo León","name":"Aramberri","lat":24.22116478,"lon":-99.891487003},{"id":955,"stateId":"19","stateName":"Nuevo León","name":"Bustamante","lat":26.574753303,"lon":-100.561255006},{"id":956,"stateId":"19","stateName":"Nuevo León","name":"Cadereyta Jiménez","lat":25.525666984,"lon":-99.913347703},{"id":958,"stateId":"19","stateName":"Nuevo León","name":"Cerralvo","lat":26.072262452,"lon":-99.703076612},{"id":960,"stateId":"19","stateName":"Nuevo León","name":"China","lat":25.47967157,"lon":-98.968732558},{"id":959,"stateId":"19","stateName":"Nuevo León","name":"Ciénega de Flores","lat":25.97862951,"lon":-100.187618025},{"id":961,"stateId":"19","stateName":"Nuevo León","name":"Doctor Arroyo","lat":23.857572666,"lon":-100.305205945},{"id":962,"stateId":"19","stateName":"Nuevo León","name":"Doctor Coss","lat":25.963728049,"lon":-99.032056073},{"id":963,"stateId":"19","stateName":"Nuevo León","name":"Doctor González","lat":25.848781472,"lon":-99.805809857},{"id":957,"stateId":"19","stateName":"Nuevo León","name":"El Carmen","lat":25.902257424,"lon":-100.355646108},{"id":964,"stateId":"19","stateName":"Nuevo León","name":"Galeana","lat":24.762364064,"lon":-100.388657781},{"id":965,"stateId":"19","stateName":"Nuevo León","name":"García","lat":25.807951045,"lon":-100.663796376},{"id":967,"stateId":"19","stateName":"Nuevo León","name":"General Bravo","lat":25.803824848,"lon":-98.847969886},{"id":968,"stateId":"19","stateName":"Nuevo León","name":"General Escobedo","lat":25.821202768,"lon":-100.35863135},{"id":969,"stateId":"19","stateName":"Nuevo León","name":"General Terán","lat":25.275493927,"lon":-99.411272986},{"id":970,"stateId":"19","stateName":"Nuevo León","name":"General Treviño","lat":26.21243939,"lon":-99.445961471},{"id":971,"stateId":"19","stateName":"Nuevo León","name":"General Zaragoza","lat":23.900158852,"lon":-99.733795624},{"id":972,"stateId":"19","stateName":"Nuevo León","name":"General Zuazua","lat":25.911097036,"lon":-100.134826868},{"id":973,"stateId":"19","stateName":"Nuevo León","name":"Guadalupe","lat":25.673131855,"lon":-100.205969834},{"id":994,"stateId":"19","stateName":"Nuevo León","name":"Hidalgo","lat":25.995554613,"lon":-100.451698315},{"id":975,"stateId":"19","stateName":"Nuevo León","name":"Higueras","lat":26.034624865,"lon":-99.997947959},{"id":976,"stateId":"19","stateName":"Nuevo León","name":"Hualahuises","lat":24.884653273,"lon":-99.675738564},{"id":977,"stateId":"19","stateName":"Nuevo León","name":"Iturbide","lat":24.637749564,"lon":-99.847036165},{"id":978,"stateId":"19","stateName":"Nuevo León","name":"Juárez","lat":25.612713254,"lon":-100.118581433},{"id":979,"stateId":"19","stateName":"Nuevo León","name":"Lampazos de Naranjo","lat":27.051106412,"lon":-100.421323744},{"id":980,"stateId":"19","stateName":"Nuevo León","name":"Linares","lat":24.852101284,"lon":-99.523908121},{"id":950,"stateId":"19","stateName":"Nuevo León","name":"Los Aldamas","lat":26.091678336,"lon":-99.272936753},{"id":974,"stateId":"19","stateName":"Nuevo León","name":"Los Herreras","lat":25.914512759,"lon":-99.415261236},{"id":989,"stateId":"19","stateName":"Nuevo León","name":"Los Ramones","lat":25.651811552,"lon":-99.587858812},{"id":981,"stateId":"19","stateName":"Nuevo León","name":"Marín","lat":25.876664126,"lon":-99.961897474},{"id":982,"stateId":"19","stateName":"Nuevo León","name":"Melchor Ocampo","lat":26.046832554,"lon":-99.492087723},{"id":983,"stateId":"19","stateName":"Nuevo León","name":"Mier y Noriega","lat":23.416994901,"lon":-100.162152474},{"id":984,"stateId":"19","stateName":"Nuevo León","name":"Mina","lat":26.284712152,"lon":-100.78637978},{"id":985,"stateId":"19","stateName":"Nuevo León","name":"Montemorelos","lat":25.128036248,"lon":-99.806941776},{"id":986,"stateId":"19","stateName":"Nuevo León","name":"Monterrey","lat":25.655240027,"lon":-100.316159195},{"id":987,"stateId":"19","stateName":"Nuevo León","name":"Parás","lat":26.583664409,"lon":-99.601966965},{"id":988,"stateId":"19","stateName":"Nuevo León","name":"Pesquería","lat":25.736855411,"lon":-99.969373942},{"id":990,"stateId":"19","stateName":"Nuevo León","name":"Rayones","lat":25.061733806,"lon":-100.120250525},{"id":991,"stateId":"19","stateName":"Nuevo León","name":"Sabinas Hidalgo","lat":26.576184372,"lon":-100.148705809},{"id":992,"stateId":"19","stateName":"Nuevo León","name":"Salinas Victoria","lat":26.160617555,"lon":-100.271529586},{"id":993,"stateId":"19","stateName":"Nuevo León","name":"San Nicolás de los Garza","lat":25.736258951,"lon":-100.270389106},{"id":966,"stateId":"19","stateName":"Nuevo León","name":"San Pedro Garza García","lat":25.638699722,"lon":-100.370250713},{"id":995,"stateId":"19","stateName":"Nuevo León","name":"Santa Catarina","lat":25.575683409,"lon":-100.478915093},{"id":996,"stateId":"19","stateName":"Nuevo León","name":"Santiago","lat":25.389623762,"lon":-100.24161682},{"id":997,"stateId":"19","stateName":"Nuevo León","name":"Vallecillo","lat":26.647272891,"lon":-99.884088453},{"id":998,"stateId":"19","stateName":"Nuevo León","name":"Villaldama","lat":26.469037762,"lon":-100.348160911},{"id":12,"stateId":"2","stateName":"Baja California","name":"Ensenada","lat":30.041951014,"lon":-114.930556906},{"id":13,"stateId":"2","stateName":"Baja California","name":"Mexicali","lat":31.894997427,"lon":-115.239029563},{"id":16,"stateId":"2","stateName":"Baja California","name":"Playas de Rosarito","lat":32.257949457,"lon":-116.893829341},{"id":75560,"stateId":"2","stateName":"Baja California","name":"San Felipe"},{"id":75555,"stateId":"2","stateName":"Baja California","name":"San Quintín"},{"id":14,"stateId":"2","stateName":"Baja California","name":"Tecate","lat":32.418710268,"lon":-116.235523552},{"id":15,"stateId":"2","stateName":"Baja California","name":"Tijuana","lat":32.390059856,"lon":-116.834411204},{"id":999,"stateId":"20","stateName":"Oaxaca","name":"Abejones","lat":17.489129615,"lon":-96.633576691},{"id":1000,"stateId":"20","stateName":"Oaxaca","name":"Acatlán de Pérez Figueroa","lat":18.445559281,"lon":-96.534879585},{"id":1172,"stateId":"20","stateName":"Oaxaca","name":"Ánimas Trujano","lat":16.985101348,"lon":-96.716697675},{"id":1001,"stateId":"20","stateName":"Oaxaca","name":"Asunción Cacalotepec","lat":17.031826592,"lon":-95.934749054},{"id":1002,"stateId":"20","stateName":"Oaxaca","name":"Asunción Cuyotepeji","lat":17.934857576,"lon":-97.688645233},{"id":1003,"stateId":"20","stateName":"Oaxaca","name":"Asunción Ixtaltepec","lat":16.66927758,"lon":-94.94434019},{"id":1004,"stateId":"20","stateName":"Oaxaca","name":"Asunción Nochixtlán","lat":17.445511302,"lon":-97.169272992},{"id":1005,"stateId":"20","stateName":"Oaxaca","name":"Asunción Ocotlán","lat":16.76117635,"lon":-96.724862364},{"id":1006,"stateId":"20","stateName":"Oaxaca","name":"Asunción Tlacolulita","lat":16.254783949,"lon":-95.759890587},{"id":1396,"stateId":"20","stateName":"Oaxaca","name":"Ayoquezco de Aldama","lat":16.677922112,"lon":-96.8904767},{"id":1007,"stateId":"20","stateName":"Oaxaca","name":"Ayotzintepec","lat":17.702396153,"lon":-96.172926758},{"id":1009,"stateId":"20","stateName":"Oaxaca","name":"Calihualá","lat":17.543728223,"lon":-98.253461792},{"id":1010,"stateId":"20","stateName":"Oaxaca","name":"Candelaria Loxicha","lat":15.892364912,"lon":-96.526206604},{"id":1245,"stateId":"20","stateName":"Oaxaca","name":"Capulálpam de Méndez","lat":17.307202288,"lon":-96.378353579},{"id":1023,"stateId":"20","stateName":"Oaxaca","name":"Chahuites","lat":16.278824964,"lon":-94.200742826},{"id":1024,"stateId":"20","stateName":"Oaxaca","name":"Chalcatongo de Hidalgo","lat":16.990402066,"lon":-97.561807284},{"id":1025,"stateId":"20","stateName":"Oaxaca","name":"Chiquihuitlán de Benito Juárez","lat":17.992096695,"lon":-96.74778002},{"id":1011,"stateId":"20","stateName":"Oaxaca","name":"Ciénega de Zimatlán","lat":16.893841557,"lon":-96.763088088},{"id":1012,"stateId":"20","stateName":"Oaxaca","name":"Ciudad Ixtepec","lat":16.602398439,"lon":-95.078128432},{"id":1013,"stateId":"20","stateName":"Oaxaca","name":"Coatecas Altas","lat":16.519640469,"lon":-96.645981357},{"id":1014,"stateId":"20","stateName":"Oaxaca","name":"Coicoyán de las Flores","lat":17.21137624,"lon":-98.212852668},{"id":1016,"stateId":"20","stateName":"Oaxaca","name":"Concepción Buenavista","lat":17.989047706,"lon":-97.442285507},{"id":1017,"stateId":"20","stateName":"Oaxaca","name":"Concepción Pápalo","lat":17.861345252,"lon":-96.852679877},{"id":1018,"stateId":"20","stateName":"Oaxaca","name":"Constancia del Rosario","lat":17.04056356,"lon":-98.003724969},{"id":1019,"stateId":"20","stateName":"Oaxaca","name":"Cosolapa","lat":18.573917837,"lon":-96.660857992},{"id":1020,"stateId":"20","stateName":"Oaxaca","name":"Cosoltepec","lat":18.126420839,"lon":-97.811524511},{"id":1021,"stateId":"20","stateName":"Oaxaca","name":"Cuilápam de Guerrero","lat":17.007699749,"lon":-96.802915225},{"id":1022,"stateId":"20","stateName":"Oaxaca","name":"Cuyamecalco Villa de Zaragoza","lat":17.964282394,"lon":-96.856564569},{"id":1008,"stateId":"20","stateName":"Oaxaca","name":"El Barrio de la Soledad","lat":16.778649747,"lon":-95.046250569},{"id":1028,"stateId":"20","stateName":"Oaxaca","name":"El Espinal","lat":16.46961634,"lon":-95.037796785},{"id":1027,"stateId":"20","stateName":"Oaxaca","name":"Eloxochitlán de Flores Magón","lat":18.194561356,"lon":-96.868931122},{"id":1030,"stateId":"20","stateName":"Oaxaca","name":"Fresnillo de Trujano","lat":17.930328969,"lon":-98.123648275},{"id":1032,"stateId":"20","stateName":"Oaxaca","name":"Guadalupe de Ramírez","lat":17.758130152,"lon":-98.182694225},{"id":1031,"stateId":"20","stateName":"Oaxaca","name":"Guadalupe Etla","lat":17.170998998,"lon":-96.797876267},{"id":1033,"stateId":"20","stateName":"Oaxaca","name":"Guelatao de Juárez","lat":17.317838533,"lon":-96.504731343},{"id":1034,"stateId":"20","stateName":"Oaxaca","name":"Guevea de Humboldt","lat":16.843073415,"lon":-95.385245138},{"id":1026,"stateId":"20","stateName":"Oaxaca","name":"Heroica Ciudad de Ejutla de Crespo","lat":16.600546846,"lon":-96.722172994},{"id":1037,"stateId":"20","stateName":"Oaxaca","name":"Heroica Ciudad de Huajuapan de León","lat":17.855099358,"lon":-97.799820055},{"id":1395,"stateId":"20","stateName":"Oaxaca","name":"Heroica Ciudad de Tlaxiaco","lat":17.230007173,"lon":-97.689537501},{"id":1122,"stateId":"20","stateName":"Oaxaca","name":"Heroica Villa de San Blas Atempa","lat":16.357604331,"lon":-95.143135062},{"id":1038,"stateId":"20","stateName":"Oaxaca","name":"Huautepec","lat":18.073694851,"lon":-96.78393299},{"id":1039,"stateId":"20","stateName":"Oaxaca","name":"Huautla de Jiménez","lat":18.136219874,"lon":-96.800136171},{"id":1063,"stateId":"20","stateName":"Oaxaca","name":"Ixpantepec Nieves","lat":17.513975917,"lon":-98.004180407},{"id":1040,"stateId":"20","stateName":"Oaxaca","name":"Ixtlán de Juárez","lat":17.498730526,"lon":-96.359263111},{"id":1041,"stateId":"20","stateName":"Oaxaca","name":"Juchitán de Zaragoza","lat":16.445691628,"lon":-94.930456869},{"id":1015,"stateId":"20","stateName":"Oaxaca","name":"La Compañía","lat":16.580988103,"lon":-96.850569578},{"id":1067,"stateId":"20","stateName":"Oaxaca","name":"La Pe","lat":16.630597683,"lon":-96.793839223},{"id":1074,"stateId":"20","stateName":"Oaxaca","name":"La Reforma","lat":16.64606919,"lon":-97.866309523},{"id":1554,"stateId":"20","stateName":"Oaxaca","name":"La Trinidad Vista Hermosa","lat":17.774778062,"lon":-97.499986835},{"id":1042,"stateId":"20","stateName":"Oaxaca","name":"Loma Bonita","lat":17.99243651,"lon":-95.887734444},{"id":1043,"stateId":"20","stateName":"Oaxaca","name":"Magdalena Apasco","lat":17.247219534,"lon":-96.817312698},{"id":1044,"stateId":"20","stateName":"Oaxaca","name":"Magdalena Jaltepec","lat":17.261945364,"lon":-97.244057094},{"id":1046,"stateId":"20","stateName":"Oaxaca","name":"Magdalena Mixtepec","lat":16.901424112,"lon":-96.904722615},{"id":1047,"stateId":"20","stateName":"Oaxaca","name":"Magdalena Ocotlán","lat":16.706852882,"lon":-96.719939003},{"id":1048,"stateId":"20","stateName":"Oaxaca","name":"Magdalena Peñasco","lat":17.239770498,"lon":-97.556470419},{"id":1049,"stateId":"20","stateName":"Oaxaca","name":"Magdalena Teitipac","lat":16.888030451,"lon":-96.556001465},{"id":1050,"stateId":"20","stateName":"Oaxaca","name":"Magdalena Tequisistlán","lat":16.391692319,"lon":-95.646376012},{"id":1051,"stateId":"20","stateName":"Oaxaca","name":"Magdalena Tlacotepec","lat":16.503881472,"lon":-95.227465452},{"id":1560,"stateId":"20","stateName":"Oaxaca","name":"Magdalena Yodocono de Porfirio Díaz","lat":17.377652825,"lon":-97.401437544},{"id":1052,"stateId":"20","stateName":"Oaxaca","name":"Magdalena Zahuatlán","lat":17.391137268,"lon":-97.225820038},{"id":1053,"stateId":"20","stateName":"Oaxaca","name":"Mariscala de Juárez","lat":17.820455137,"lon":-98.123049233},{"id":1054,"stateId":"20","stateName":"Oaxaca","name":"Mártires de Tacubaya","lat":16.538336233,"lon":-98.24044183},{"id":1055,"stateId":"20","stateName":"Oaxaca","name":"Matías Romero Avendaño","lat":17.155266668,"lon":-94.990871863},{"id":1056,"stateId":"20","stateName":"Oaxaca","name":"Mazatlán Villa de Flores","lat":18.028382451,"lon":-96.910761535},{"id":1035,"stateId":"20","stateName":"Oaxaca","name":"Mesones Hidalgo","lat":16.916297188,"lon":-98.0073243},{"id":1057,"stateId":"20","stateName":"Oaxaca","name":"Miahuatlán de Porfirio Díaz","lat":16.3562128,"lon":-96.640374914},{"id":1058,"stateId":"20","stateName":"Oaxaca","name":"Mixistlán de la Reforma","lat":17.156974776,"lon":-96.099118118},{"id":1059,"stateId":"20","stateName":"Oaxaca","name":"Monjas","lat":16.392281727,"lon":-96.632241491},{"id":1060,"stateId":"20","stateName":"Oaxaca","name":"Natividad","lat":17.30230826,"lon":-96.428147385},{"id":1061,"stateId":"20","stateName":"Oaxaca","name":"Nazareno Etla","lat":17.180761393,"lon":-96.828812712},{"id":1062,"stateId":"20","stateName":"Oaxaca","name":"Nejapa de Madero","lat":16.637921712,"lon":-95.830615983},{"id":1502,"stateId":"20","stateName":"Oaxaca","name":"Nuevo Zoquiápam","lat":17.259068935,"lon":-96.649634288},{"id":1065,"stateId":"20","stateName":"Oaxaca","name":"Oaxaca de Juárez","lat":17.102168753,"lon":-96.722500038},{"id":1066,"stateId":"20","stateName":"Oaxaca","name":"Ocotlán de Morelos","lat":16.763184532,"lon":-96.702946318},{"id":1068,"stateId":"20","stateName":"Oaxaca","name":"Pinotepa de Don Luis","lat":16.402620276,"lon":-97.974390018},{"id":1069,"stateId":"20","stateName":"Oaxaca","name":"Pluma Hidalgo","lat":15.914847915,"lon":-96.425988951},{"id":1071,"stateId":"20","stateName":"Oaxaca","name":"Putla Villa de Guerrero","lat":16.991942416,"lon":-97.883692488},{"id":1073,"stateId":"20","stateName":"Oaxaca","name":"Reforma de Pineda","lat":16.395112704,"lon":-94.446573644},{"id":1075,"stateId":"20","stateName":"Oaxaca","name":"Reyes Etla","lat":17.204077097,"lon":-96.819597784},{"id":1076,"stateId":"20","stateName":"Oaxaca","name":"Rojas de Cuauhtémoc","lat":17.006359699,"lon":-96.639427986},{"id":1077,"stateId":"20","stateName":"Oaxaca","name":"Salina Cruz","lat":16.202214805,"lon":-95.207648721},{"id":1078,"stateId":"20","stateName":"Oaxaca","name":"San Agustín Amatengo","lat":16.51107299,"lon":-96.81895477},{"id":1079,"stateId":"20","stateName":"Oaxaca","name":"San Agustín Atenango","lat":17.598010815,"lon":-97.998356794},{"id":1080,"stateId":"20","stateName":"Oaxaca","name":"San Agustín Chayuco","lat":16.447878118,"lon":-97.792458872},{"id":1081,"stateId":"20","stateName":"Oaxaca","name":"San Agustín de las Juntas","lat":16.989153928,"lon":-96.688247568},{"id":1082,"stateId":"20","stateName":"Oaxaca","name":"San Agustín Etla","lat":17.199341388,"lon":-96.725011086},{"id":1083,"stateId":"20","stateName":"Oaxaca","name":"San Agustín Loxicha","lat":15.983408442,"lon":-96.619999118},{"id":1084,"stateId":"20","stateName":"Oaxaca","name":"San Agustín Tlacotepec","lat":17.198460177,"lon":-97.513235842},{"id":1085,"stateId":"20","stateName":"Oaxaca","name":"San Agustín Yatareni","lat":17.080410221,"lon":-96.67808131},{"id":1086,"stateId":"20","stateName":"Oaxaca","name":"San Andrés Cabecera Nueva","lat":16.850751433,"lon":-97.785147239},{"id":1087,"stateId":"20","stateName":"Oaxaca","name":"San Andrés Dinicuiti","lat":17.696179056,"lon":-97.689274756},{"id":1088,"stateId":"20","stateName":"Oaxaca","name":"San Andrés Huaxpaltepec","lat":16.342014668,"lon":-97.923469007},{"id":1089,"stateId":"20","stateName":"Oaxaca","name":"San Andrés Huayapam","lat":17.123943411,"lon":-96.667885077},{"id":1090,"stateId":"20","stateName":"Oaxaca","name":"San Andrés Ixtlahuaca","lat":17.052824201,"lon":-96.864915711},{"id":1091,"stateId":"20","stateName":"Oaxaca","name":"San Andrés Lagunas","lat":17.58704185,"lon":-97.528637141},{"id":1092,"stateId":"20","stateName":"Oaxaca","name":"San Andrés Nuxiño","lat":17.231852595,"lon":-97.061342255},{"id":1093,"stateId":"20","stateName":"Oaxaca","name":"San Andrés Paxtlán","lat":16.212176214,"lon":-96.526127753},{"id":1094,"stateId":"20","stateName":"Oaxaca","name":"San Andrés Sinaxtla","lat":17.486604142,"lon":-97.290227954},{"id":1095,"stateId":"20","stateName":"Oaxaca","name":"San Andrés Solaga","lat":17.275731326,"lon":-96.216221835},{"id":1096,"stateId":"20","stateName":"Oaxaca","name":"San Andrés Teotilálpam","lat":17.940925062,"lon":-96.603756608},{"id":1097,"stateId":"20","stateName":"Oaxaca","name":"San Andrés Tepetlapa","lat":17.657973492,"lon":-98.382924082},{"id":1098,"stateId":"20","stateName":"Oaxaca","name":"San Andrés Yaá","lat":17.288139035,"lon":-96.135629082},{"id":1099,"stateId":"20","stateName":"Oaxaca","name":"San Andrés Zabache","lat":16.59761417,"lon":-96.85273272},{"id":1100,"stateId":"20","stateName":"Oaxaca","name":"San Andrés Zautla","lat":17.187059969,"lon":-96.895728549},{"id":1101,"stateId":"20","stateName":"Oaxaca","name":"San Antonino Castillo Velasco","lat":16.813720937,"lon":-96.692495731},{"id":1102,"stateId":"20","stateName":"Oaxaca","name":"San Antonino El Alto","lat":16.844586275,"lon":-97.06127275},{"id":1103,"stateId":"20","stateName":"Oaxaca","name":"San Antonino Monte Verde","lat":17.515801473,"lon":-97.741372289},{"id":1104,"stateId":"20","stateName":"Oaxaca","name":"San Antonio Acutla","lat":17.744801392,"lon":-97.492617858},{"id":1105,"stateId":"20","stateName":"Oaxaca","name":"San Antonio de la Cal","lat":17.024260975,"lon":-96.690162182},{"id":1106,"stateId":"20","stateName":"Oaxaca","name":"San Antonio Huitepec","lat":16.917854727,"lon":-97.144167395},{"id":1107,"stateId":"20","stateName":"Oaxaca","name":"San Antonio Nanahuatipam","lat":18.112365985,"lon":-97.158745605},{"id":1108,"stateId":"20","stateName":"Oaxaca","name":"San Antonio Sinicahua","lat":17.14850269,"lon":-97.568510063},{"id":1109,"stateId":"20","stateName":"Oaxaca","name":"San Antonio Tepetlapa","lat":16.5378262,"lon":-98.052320523},{"id":1110,"stateId":"20","stateName":"Oaxaca","name":"San Baltazar Chichicápam","lat":16.7657257,"lon":-96.506905766},{"id":1111,"stateId":"20","stateName":"Oaxaca","name":"San Baltazar Loxicha","lat":16.031556018,"lon":-96.793979111},{"id":1112,"stateId":"20","stateName":"Oaxaca","name":"San Baltazar Yatzachi El Bajo","lat":17.219480515,"lon":-96.213161653},{"id":1113,"stateId":"20","stateName":"Oaxaca","name":"San Bartolo Coyotepec","lat":16.926545097,"lon":-96.693806656},{"id":1119,"stateId":"20","stateName":"Oaxaca","name":"San Bartolo Soyaltepec","lat":17.605027214,"lon":-97.282056431},{"id":1120,"stateId":"20","stateName":"Oaxaca","name":"San Bartolo Yautepec","lat":16.417856971,"lon":-95.921391424},{"id":1114,"stateId":"20","stateName":"Oaxaca","name":"San Bartolomé Ayautla","lat":18.039839159,"lon":-96.675383469},{"id":1115,"stateId":"20","stateName":"Oaxaca","name":"San Bartolomé Loxicha","lat":15.942211153,"lon":-96.751402997},{"id":1116,"stateId":"20","stateName":"Oaxaca","name":"San Bartolomé Quialana","lat":16.890373946,"lon":-96.498646196},{"id":1117,"stateId":"20","stateName":"Oaxaca","name":"San Bartolomé Yucuañe","lat":17.197856093,"lon":-97.443784308},{"id":1118,"stateId":"20","stateName":"Oaxaca","name":"San Bartolomé Zoogocho","lat":17.250541475,"lon":-96.248949279},{"id":1121,"stateId":"20","stateName":"Oaxaca","name":"San Bernardo Mixtepec","lat":16.839817601,"lon":-96.903957121},{"id":1123,"stateId":"20","stateName":"Oaxaca","name":"San Carlos Yautepec","lat":16.414859397,"lon":-95.959697111},{"id":1124,"stateId":"20","stateName":"Oaxaca","name":"San Cristóbal Amatlán","lat":16.305129955,"lon":-96.375959853},{"id":1125,"stateId":"20","stateName":"Oaxaca","name":"San Cristóbal Amoltepec","lat":17.28523402,"lon":-97.576289775},{"id":1126,"stateId":"20","stateName":"Oaxaca","name":"San Cristóbal Lachirioag","lat":17.352819074,"lon":-96.175181825},{"id":1127,"stateId":"20","stateName":"Oaxaca","name":"San Cristóbal Suchixtlahuaca","lat":17.715351857,"lon":-97.382281857},{"id":1128,"stateId":"20","stateName":"Oaxaca","name":"San Dionisio del Mar","lat":16.379398064,"lon":-94.730172298},{"id":1129,"stateId":"20","stateName":"Oaxaca","name":"San Dionisio Ocotepec","lat":16.781554537,"lon":-96.301548517},{"id":1130,"stateId":"20","stateName":"Oaxaca","name":"San Dionisio Ocotlán","lat":16.750671803,"lon":-96.66418666},{"id":1131,"stateId":"20","stateName":"Oaxaca","name":"San Esteban Atatlahuca","lat":17.076167733,"lon":-97.690050098},{"id":1132,"stateId":"20","stateName":"Oaxaca","name":"San Felipe Jalapa de Díaz","lat":18.067679761,"lon":-96.535171073},{"id":1133,"stateId":"20","stateName":"Oaxaca","name":"San Felipe Tejalápam","lat":17.089622507,"lon":-96.884310174},{"id":1134,"stateId":"20","stateName":"Oaxaca","name":"San Felipe Usila","lat":17.828327048,"lon":-96.499779445},{"id":1135,"stateId":"20","stateName":"Oaxaca","name":"San Francisco Cahuacúa","lat":16.875942495,"lon":-97.365363501},{"id":1136,"stateId":"20","stateName":"Oaxaca","name":"San Francisco Cajonos","lat":17.180035299,"lon":-96.264063083},{"id":1137,"stateId":"20","stateName":"Oaxaca","name":"San Francisco Chapulapa","lat":17.905680478,"lon":-96.745704184},{"id":1138,"stateId":"20","stateName":"Oaxaca","name":"San Francisco Chindúa","lat":17.41879334,"lon":-97.315303876},{"id":1139,"stateId":"20","stateName":"Oaxaca","name":"San Francisco del Mar","lat":16.226762901,"lon":-94.434339007},{"id":1140,"stateId":"20","stateName":"Oaxaca","name":"San Francisco Huehuetlán","lat":18.191104545,"lon":-96.940059417},{"id":1141,"stateId":"20","stateName":"Oaxaca","name":"San Francisco Ixhuatán","lat":16.353712015,"lon":-94.50829384},{"id":1142,"stateId":"20","stateName":"Oaxaca","name":"San Francisco Jaltepetongo","lat":17.348287405,"lon":-97.276602614},{"id":1143,"stateId":"20","stateName":"Oaxaca","name":"San Francisco Lachigolo","lat":17.026695864,"lon":-96.597714907},{"id":1144,"stateId":"20","stateName":"Oaxaca","name":"San Francisco Logueche","lat":16.369407005,"lon":-96.370042216},{"id":1145,"stateId":"20","stateName":"Oaxaca","name":"San Francisco Nuxaño","lat":17.366874399,"lon":-97.33356705},{"id":1146,"stateId":"20","stateName":"Oaxaca","name":"San Francisco Ozolotepec","lat":16.089482058,"lon":-96.199381669},